stop_id,stop_code,stop_name,stop_desc,stop_lat,stop_lon,zone_id,stop_url,location_type,parent_station,stop_timezone,wheelchair_boarding
1,1,A. AMEDEO - COLONNA ROTTA,,38.113304999999997,13.35223667,1,,,,Europe/Rome,1
10,10,ACC. A29 MONTE - WELLS,,38.17868533,13.293224950000001,1,,,,Europe/Rome,1
100,100,APOLLO - AGLAIA,,38.199359999999999,13.317285,1,,,,Europe/Rome,1
1002,1002,LEONARDO DA VINCI - SILVESTRI,,38.12702333,13.32099833,1,,,,Europe/Rome,1
1004,1004,LEONARDO DA VINCI - UDITORE,,38.127758270000001,13.326384640000001,1,,,,Europe/Rome,1
1006,1006,LEONI - FAVORITA,,38.146015515000002,13.34497661,1,,,,Europe/Rome,1
1007,1007,LEONI - FAVORITA,,38.146249624999996,13.344593490000001,1,,,,Europe/Rome,1
1008,1008,LEVRIERE - ANTILOPE,,38.080165440000002,13.359033330000001,1,,,,Europe/Rome,1
1009,1009,LEVRIERE - BASSOTTO,,38.084395000000001,13.365534999999999,1,,,,Europe/Rome,1
101,101,APOLLO - CATALANO,,38.198121669999999,13.314539999999999,1,,,,Europe/Rome,1
1010,1010,LEVRIERE - ERMELLINO,,38.086150000000004,13.36611667,1,,,,Europe/Rome,1
1011,1011,LEVRIERE - BASSOTTO,,38.08271156,13.36459516,1,,,,Europe/Rome,1
1012,1012,LEVRIERE - RUMORE,,38.080958449999997,13.36128385,1,,,,Europe/Rome,1
1018,1018,LIBERO GRASSI,,38.113941670000003,13.33240333,1,,,,Europe/Rome,1
1019,1019,LIBERO GRASSI - DEGLI EMIRI,,38.114564190000003,13.33233431,1,,,,Europe/Rome,1
102,102,AQUILEIA - DELLE ALPI,,38.143560000000001,13.331901670000001,1,,,,Europe/Rome,1
1020,1020,LIBERO GRASSI - LA TORRE,,38.112607910000001,13.333505089999999,1,,,,Europe/Rome,1
1021,1021,LIBERO GRASSI - SICCHERIA,,38.11288167,13.33314,1,,,,Europe/Rome,1
1022,1022,LIBERTA' - ARCHIMEDE,,38.128539999999994,13.353138330000002,1,,,,Europe/Rome,1
1023,1023,LIBERTA' - ARIMONDI,,38.13617833,13.348245,1,,,,Europe/Rome,1
1024,1024,LIBERTA' - ARIMONDI,,38.135698329999997,13.348468330000001,1,,,,Europe/Rome,1
1025,1025,LIBERTA' - CROCI,,38.130654999999997,13.351783330000002,1,,,,Europe/Rome,1
1026,1026,LIBERTA' - CROCI,,38.129606989999985,13.352411990000006,1,,,,Europe/Rome,1
1027,1027,LIBERTA' - D'ANNUNZIO,,38.138930000000009,13.346386669999999,1,,,,Europe/Rome,1
1028,1028,LIBERTA' - DON BOSCO,,38.143165000000003,13.34369,1,,,,Europe/Rome,1
1029,1029,LIBERTA' - DON BOSCO,,38.143263330000003,13.34355667,1,,,,Europe/Rome,1
103,103,AQUILEIA - LAZIO,,38.14161833,13.33345667,1,,,,Europe/Rome,1
1030,1030,LIBERTA' - LAZIO,,38.144370000000002,13.342918330000002,1,,,,Europe/Rome,1
1031,1031,LIBERTA' - LAZIO,,38.144708330000007,13.342538329999998,1,,,,Europe/Rome,1
1032,1032,LIBERTA' - MATTEOTTI,,38.141615379999998,13.344697949999999,1,,,,Europe/Rome,1
1033,1033,LIBERTA' - MATTEOTTI,,38.141919999999999,13.344430000000001,1,,,,Europe/Rome,1
1034,1034,LIBERTA' - NOTARBARTOLO,,38.134301670000006,13.349459999999999,1,,,,Europe/Rome,1
1035,1035,LIBERTA' - NOTARBARTOLO,,38.133210559999974,13.350078460000008,1,,,,Europe/Rome,1
1036,1036,LIBERTA' - QUINTINO SELLA,,38.126596669999998,13.354433330000001,1,,,,Europe/Rome,1
1037,1037,LIBERTA' - QUINTINO SELLA,,38.12631663999997,13.354541493333338,1,,,,Europe/Rome,1
1038,1038,LIBERTA' - UGDULENA,,38.139821670000003,13.345844999999999,1,,,,Europe/Rome,1
1039,1039,LIBERTA' - UGDULENA,,38.140234999999997,13.345583329999998,1,,,,Europe/Rome,1
104,104,AQUILEIA - LAZIO,,38.141748329999999,13.333168329999999,1,,,,Europe/Rome,1
1040,1040,LIBERTA' - VILLA PAINO,,38.137581860000004,13.347272869999999,1,,,,Europe/Rome,1
1041,1041,LIBERTA' - VILLA PAINO,,38.137336670000003,13.347416669999999,1,,,,Europe/Rome,1
1042,1042,LINCOLN - ARCHIRAFI,,38.112031780000009,13.36950704,1,,,,Europe/Rome,1
1043,1043,LINCOLN - ARCHIRAFI,,38.112441190000013,13.370153460000004,1,,,,Europe/Rome,1
1044,1044,LINCOLN - DEI MILLE,,38.11131003000002,13.367760929999996,1,,,,Europe/Rome,1
1045,1045,LINCOLN - ORTO BOTANICO,,38.11364726,13.372925519999997,1,,,,Europe/Rome,1
1046,1046,LINCOLN - ORTO BOTANICO,,38.11307008,13.371522729999999,1,,,,Europe/Rome,1
1047,1047,LINCOLN - VILLA GIULIA,,38.11441330000001,13.374616650000005,1,,,,Europe/Rome,1
1048,1048,LINCOLN - VILLA GIULIA,,38.114804759999998,13.375261719999999,1,,,,Europe/Rome,1
1049,1049,LISZT,,38.136990320000002,13.33590117,1,,,,Europe/Rome,1
105,105,AQUINO - CALO',,38.074660119999997,13.30828026,1,,,,Europe/Rome,1
1050,1050,LISZT,,38.136196669999997,13.336088330000001,1,,,,Europe/Rome,1
1051,1051,M. MONTAGNE - FIGURELLA,,38.08211,13.43383833,1,,,,Europe/Rome,1
1052,1052,M. MONTAGNE 1,,38.083323999999998,13.42816732,1,,,,Europe/Rome,1
1053,1053,M. MONTAGNE 2,,38.082756670000002,13.430815000000001,1,,,,Europe/Rome,1
1054,1054,M. MONTAGNE 2,,38.082722220000001,13.431220809999999,1,,,,Europe/Rome,1
1055,1055,M. MONTAGNE 1,,38.083398549999998,13.428084999999999,1,,,,Europe/Rome,1
106,106,AQUINO - CALO',,38.074612610000003,13.308293669999999,1,,,,Europe/Rome,1
107,107,AQUINO - CARTIERA,,38.075888329999998,13.310228329999999,1,,,,Europe/Rome,1
108,108,AQUINO - CARTIERA,,38.075834999999998,13.310233330000001,1,,,,Europe/Rome,1
1083,1083,MALASPINA - PIAZZA VIRGILIO,,38.124107340000002,13.348097839999999,1,,,,Europe/Rome,1
1084,1084,MALASPINA - PIAZZA ZIINO,,38.130320130000001,13.33880246,1,,,,Europe/Rome,1
1085,1085,MALASPINA - TURRISI COLONNA,,38.125216770000002,13.34629638,1,,,,Europe/Rome,1
1089,1089,MANDERINO - FILISTO,,38.199556729999998,13.279991000000001,1,,,,Europe/Rome,1
1090,1090,MANDERINO - FILISTO,,38.199591669999997,13.279996669999999,1,,,,Europe/Rome,1
1091,1091,MANDERINO - TERENZIO,,38.198339439999998,13.278129549999999,1,,,,Europe/Rome,1
1092,1092,MANDERINO - TERENZIO,,38.198348330000002,13.27810833,1,,,,Europe/Rome,1
1093,1093,MAQUEDA - PALAZZO COMITINI,,38.113277949999997,13.362978549999999,1,,,,Europe/Rome,1
1095,1095,MAQUEDA - S. ANTONINO,,38.111199399999997,13.364342710000001,1,,,,Europe/Rome,1
11,11,ACC. A29 MONTE 1,,38.182674409999997,13.29064198,1,,,,Europe/Rome,1
1101,1101,MARGHERITA DI SAVOIA - DELLE PALME,,38.195845769999998,13.33204329,1,,,,Europe/Rome,1
1104,1104,MARGHERITA DI SAVOIA - MATER DEI,,38.195666599999996,13.331931980000006,1,,,,Europe/Rome,1
1109,1109,MARGHERITA DI SAVOIA - PIAZZA CABOTO,,38.193045300000001,13.33246842,1,,,,Europe/Rome,1
1110,1110,MARGHERITA DI SAVOIA - PIAZZA CABOTO,,38.193372050000001,13.332280669999996,1,,,,Europe/Rome,1
1111,1111,MARGHERITA DI SAVOIA - VENERE,,38.191762550000007,13.332661540000002,1,,,,Europe/Rome,1
1112,1112,MARGHERITA DI SAVOIA - VENERE,,38.191984949999998,13.332485850000005,1,,,,Europe/Rome,1
1113,1113,MARINI,,38.100479540000002,13.35051582,1,,,,Europe/Rome,1
1114,1114,MARINI,,38.100586669999998,13.35034667,1,,,,Europe/Rome,1
1116,1116,MARINUZZI - PALERMO,,38.106243329999998,13.36486,1,,,,Europe/Rome,1
1117,1117,MARINUZZI - PISACANE,,38.107910100000012,13.36373895,1,,,,Europe/Rome,1
1118,1118,MATER DOLOROSA - BARBADORO,,38.174578330000003,13.332685,1,,,,Europe/Rome,1
1119,1119,MATER DOLOROSA - BARBADORO,,38.174376670000001,13.33210167,1,,,,Europe/Rome,1
112,112,AQUINO 1 MONTE,,38.077393350000001,13.312184220000001,1,,,,Europe/Rome,1
1120,1120,MATER DOLOROSA - CAMARINA,,38.175229999999999,13.334569999999999,1,,,,Europe/Rome,1
1121,1121,MATER DOLOROSA - CAMARINA,,38.175176669999999,13.334326669999999,1,,,,Europe/Rome,1
1122,1122,MATER DOLOROSA - MERCADANTE,,38.173766669999999,13.330448329999999,1,,,,Europe/Rome,1
1123,1123,MATER DOLOROSA - PETROSINO,,38.173468329999999,13.329759999999997,1,,,,Europe/Rome,1
1124,1124,MATTEI - AFRODITE,,38.193738840000002,13.321948799999999,1,,,,Europe/Rome,1
1125,1125,MATTEI - CALLIOPE,,38.192176789999998,13.32253888,1,,,,Europe/Rome,1
1126,1126,MATTEI - COLLOTTI,,38.195372540000001,13.32106903,1,,,,Europe/Rome,1
1127,1127,MATTEI - GIUGNONE,,38.194891669999997,13.32152,1,,,,Europe/Rome,1
1128,1128,MATTEI - TERSICORE,,38.193579800000002,13.32216354,1,,,,Europe/Rome,1
1129,1129,MATTEI,,38.191474999999997,13.322480000000001,1,,,,Europe/Rome,1
113,113,AQUINO 1 VALLE,,38.077379999999998,13.31225667,1,,,,Europe/Rome,1
1130,1130,MERCURIO,,38.204672940000002,13.31804651,1,,,,Europe/Rome,1
1131,1131,MESSINA MARINE - ACQUA DEI CORSARI,,38.096716669999992,13.426878329999996,1,,,,Europe/Rome,1
1132,1132,MESSINA MARINE - ACQUA DEI CORSARI,,38.096798330000006,13.42648833,1,,,,Europe/Rome,1
1133,1133,MESSINA MARINE - ALAGNA,,38.104381670000002,13.390753329999999,1,,,,Europe/Rome,1
1134,1134,MESSINA MARINE - ALAGNA,,38.10435167,13.390951669999996,1,,,,Europe/Rome,1
1135,1135,MESSINA MARINE - ALBRICCI,,38.102384999999998,13.395825,1,,,,Europe/Rome,1
1136,1136,MESSINA MARINE - ALBRICCI,,38.102370000000001,13.396123329999998,1,,,,Europe/Rome,1
1137,1137,MESSINA MARINE - AMMIRAGLIO CRISTODULO,,38.096823329999999,13.425383329999995,1,,,,Europe/Rome,1
1138,1138,MESSINA MARINE - BANDITA,,38.097535000000001,13.416473330000001,1,,,,Europe/Rome,1
1139,1139,MESSINA MARINE - BANDITA,,38.097520000000003,13.417136670000001,1,,,,Europe/Rome,1
114,114,AQUINO 2 MONTE,,38.076386210000003,13.31075326,1,,,,Europe/Rome,1
1140,1140,MESSINA MARINE - BUCCHERI LA FERLA,,38.106099999999998,13.386678329999999,1,,,,Europe/Rome,1
1141,1141,MESSINA MARINE - BUCCHERI LA FERLA,,38.106486670000002,13.38568667,1,,,,Europe/Rome,1
1142,1142,MESSINA MARINE - CAPPELLO,,38.106670000000001,13.384344999999998,1,,,,Europe/Rome,1
1143,1143,MESSINA MARINE - CAPPELLO,,38.106788330000001,13.383893330000003,1,,,,Europe/Rome,1
1144,1144,MESSINA MARINE - CARACAUSI,,38.100045000000001,13.402815000000002,1,,,,Europe/Rome,1
1145,1145,MESSINA MARINE - CARACAUSI,,38.10042833,13.401793330000002,1,,,,Europe/Rome,1
1147,1147,MESSINA MARINE - CLOBER,,38.103311669999989,13.393269999999999,1,,,,Europe/Rome,1
1148,1148,MESSINA MARINE - D' AOSTA,,38.105435,13.388589999999997,1,,,,Europe/Rome,1
1149,1149,MESSINA MARINE - D' AOSTA,,38.105861670000003,13.387675,1,,,,Europe/Rome,1
115,115,AQUINO 2 VALLE,,38.076342930000003,13.31079751,1,,,,Europe/Rome,1
1150,1150,MESSINA MARINE - DIAZ,,38.103198946666666,13.393775719999997,1,,,,Europe/Rome,1
1151,1151,MESSINA MARINE - FIUME ORETO,,38.10928585500001,13.379840428333337,1,,,,Europe/Rome,1
1152,1152,MESSINA MARINE - LAUDICINA,,38.097859999999997,13.412881670000003,1,,,,Europe/Rome,1
1153,1153,MESSINA MARINE - BERTETT,,38.097746669999999,13.414510000000003,1,,,,Europe/Rome,1
1154,1154,MESSINA MARINE - LAUDICINA,,38.097918329999999,13.412975000000001,1,,,,Europe/Rome,1
1155,1155,MESSINA MARINE - LI GOTTI,,38.096906670000003,13.421400000000002,1,,,,Europe/Rome,1
1156,1156,MESSINA MARINE - PALUMBO,,38.101599999999998,13.398236670000001,1,,,,Europe/Rome,1
1157,1157,MESSINA MARINE - PALUMBO,,38.101255000000002,13.399434999999999,1,,,,Europe/Rome,1
1158,1158,MESSINA MARINE - PIAZZETTA SPERONE,,38.099548329999998,13.404433330000002,1,,,,Europe/Rome,1
1159,1159,MESSINA MARINE - RAVENNA,,38.100909999999999,13.400088330000001,1,,,,Europe/Rome,1
116,116,AQUINO 3 MONTE,,38.07508241,13.309685740000001,1,,,,Europe/Rome,1
1160,1160,MESSINA MARINE - SAETTA,,38.107550000000003,13.381969999999999,1,,,,Europe/Rome,1
1161,1161,MESSINA MARINE - SAETTA,,38.107565000000001,13.382086670000003,1,,,,Europe/Rome,1
1162,1162,MESSINA MARINE - XXVII MAGGIO,,38.098533330000002,13.406594999999998,1,,,,Europe/Rome,1
1163,1163,MESSINA MARINE - ZUCCHETTO,,38.096719999999998,13.42300333,1,,,,Europe/Rome,1
1164,1164,MESSINA MARINE - ZUCCHETTO,,38.096813330000003,13.42374167,1,,,,Europe/Rome,1
1165,1165,MESSINA MARINE 1,,38.097299999999997,13.418981669999997,1,,,,Europe/Rome,1
1166,1166,MESSINA MARINE 2,,38.098144999999995,13.411153330000001,1,,,,Europe/Rome,1
1167,1167,MESSINA MARINE 3,,38.098444999999998,13.40821167,1,,,,Europe/Rome,1
1168,1168,MESSINA MARINE 4,,38.101858329999999,13.397584999999996,1,,,,Europe/Rome,1
1169,1169,MESSINA MARINE 3,,38.09830333,13.408649999999998,1,,,,Europe/Rome,1
117,117,AQUINO 3 VALLE,,38.075029620000002,13.309669639999999,1,,,,Europe/Rome,1
1170,1170,MESSINA MARINE 2,,38.098038330000001,13.410996670000001,1,,,,Europe/Rome,1
1171,1171,MESSINA MARINE 1,,38.097300000000004,13.418676669999998,1,,,,Europe/Rome,1
1172,1172,MICHELANGELO - BADIA,,38.137156580000003,13.319181359999996,1,,,,Europe/Rome,1
1173,1173,MICHELANGELO - BADIA,,38.136697089999991,13.317996669999999,1,,,,Europe/Rome,1
1174,1174,MICHELANGELO - BERNINI,,38.137875530000002,13.32303724,1,,,,Europe/Rome,1
1175,1175,MICHELANGELO - BRUNELLESCHI,,38.135580150000003,13.314802359999996,1,,,,Europe/Rome,1
1176,1176,MICHELANGELO - CASALINI,,38.134486980000005,13.312728910000002,1,,,,Europe/Rome,1
1177,1177,MICHELANGELO - CAVA,,38.13274453999999,13.308171670000005,1,,,,Europe/Rome,1
1178,1178,MICHELANGELO - FELICE,,38.138518519999998,13.325786880000001,1,,,,Europe/Rome,1
1179,1179,MICHELANGELO - FRONTINI,,38.13288816,13.309030430000005,1,,,,Europe/Rome,1
118,118,AQUINO 4 MONTE,,38.074738330000002,13.305571670000001,1,,,,Europe/Rome,1
1180,1180,MICHELANGELO - PALADINI,,38.133995059999997,13.31102536,1,,,,Europe/Rome,1
1181,1181,MICHELANGELO - PALADINI,,38.13361905,13.310711100000001,1,,,,Europe/Rome,1
1182,1182,MICHELANGELO - REGIONE SICILIANA,,38.139297220000003,13.329114560000001,1,,,,Europe/Rome,1
1183,1183,MICHELANGELO - SALERNO,,38.137636270000009,13.32127159,1,,,,Europe/Rome,1
1184,1184,MICHELANGELO - SANTUARIO DI CRUILLAS,,38.139109389999994,13.327531049999999,1,,,,Europe/Rome,1
1185,1185,MICHELANGELO 1,,38.138781360000003,13.326144080000001,1,,,,Europe/Rome,1
1186,1186,MICHELANGELO 2,,38.13671076,13.317479519999999,1,,,,Europe/Rome,1
1187,1187,MICHELANGELO 3,,38.134616749999999,13.31252289,1,,,,Europe/Rome,1
1188,1188,MICHELANGELO 4,,38.132048310000009,13.30651383,1,,,,Europe/Rome,1
1189,1189,MICHELANGELO 5,,38.131834659999996,13.306575939999997,1,,,,Europe/Rome,1
119,119,AQUINO 4 VALLE,,38.074694999999998,13.305538329999999,1,,,,Europe/Rome,1
1190,1190,MICHELANGELO 6,,38.136094620000001,13.316415570000002,1,,,,Europe/Rome,1
1191,1191,MICHELANGELO 7,,38.137197360000009,13.320153659999997,1,,,,Europe/Rome,1
1192,1192,MICHELE PIAZZA,,38.116214999999997,13.34420667,1,,,,Europe/Rome,1
120,120,AQUINO 5 MONTE,,38.074747340000002,13.30420964,1,,,,Europe/Rome,1
1200,1200,MOLARA - MIMOSA,,38.079722160000003,13.312253950000001,1,,,,Europe/Rome,1
1201,1201,MOLARA - MIMOSA,,38.07956909,13.3122392,1,,,,Europe/Rome,1
1202,1202,MOLARA - PIAZZA MOLARA,,38.080930870000003,13.311201179999999,1,,,,Europe/Rome,1
1203,1203,MOLARA - PIAZZA MOLARA,,38.080878089999999,13.311134129999999,1,,,,Europe/Rome,1
1207,1207,MONDELLO - STESICORO,,38.204915,13.322903330000001,1,,,,Europe/Rome,1
1208,1208,MONDELLO - TOLOMEA,,38.206204569999997,13.32422599,1,,,,Europe/Rome,1
1209,1209,MONETA - ALOI,,38.08531164,13.35312143,1,,,,Europe/Rome,1
121,121,AQUINO 5 VALLE,,38.074679119999999,13.304184530000001,1,,,,Europe/Rome,1
1210,1210,MONETA - ERMELLINO,,38.084724908333314,13.353881376666676,1,,,,Europe/Rome,1
1211,1211,MONTE SAN CALOGERO,,38.153955699999997,13.32428239,1,,,,Europe/Rome,1
1212,1212,MONTECARLO,,38.155131390000001,13.32463471,1,,,,Europe/Rome,1
1213,1213,MONTEPELLEGRINO - AMMIRAGLIO RIZZO,,38.141071439999997,13.35800173,1,,,,Europe/Rome,1
1214,1214,MONTEPELLEGRINO - AMMIRAGLIO RIZZO,,38.140882310000002,13.357779089999999,1,,,,Europe/Rome,1
1215,1215,MONTEPELLEGRINO - LORIA,,38.13945228,13.35828871,1,,,,Europe/Rome,1
1216,1216,MONTEPELLEGRINO - LORIA,,38.139480509999999,13.35804194,1,,,,Europe/Rome,1
1217,1217,MONTEPELLEGRINO - MERCATO,,38.136587159999998,13.35845232,1,,,,Europe/Rome,1
1218,1218,MONTEPELLEGRINO - MERCATO,,38.13646834,13.358594849999999,1,,,,Europe/Rome,1
122,122,AQUINO MOLARA - DECANO,,38.08098631,13.30764797,1,,,,Europe/Rome,1
1220,1220,MONTEPELLEGRINO - MONTALBO,,38.137454480000002,13.358586430000001,1,,,,Europe/Rome,1
1221,1221,MONTEPELLEGRINO - MONTALBO,,38.138039650000003,13.358256519999999,1,,,,Europe/Rome,1
1222,1222,MONTUORO,,38.125265659999997,13.33083862,1,,,,Europe/Rome,1
123,123,AQUINO MOLARA - DECANO,,38.080922430000001,13.30766603,1,,,,Europe/Rome,1
1231,1231,NEBRODI - BELGIO,,38.14963667,13.32942667,1,,,,Europe/Rome,1
1233,1233,NEBRODI - DE GASPERI,,38.149728330000002,13.329314999999999,1,,,,Europe/Rome,1
1234,1234,NEBRODI - DELLE MADONIE,,38.146466670000002,13.331465,1,,,,Europe/Rome,1
1237,1237,NEBRODI - SARDEGNA,,38.145960000000002,13.33169333,1,,,,Europe/Rome,1
1238,1238,NENNI - ACC. A29 VALLE,,38.152362599999996,13.32271993,1,,,,Europe/Rome,1
1239,1239,NENNI - CROCE ROSSA ITALIANA,,38.154785740000001,13.32038569,1,,,,Europe/Rome,1
124,124,AQUINO MOLARA - GALATI,,38.080369269999998,13.305670470000001,1,,,,Europe/Rome,1
1240,1240,NENNI - CROCE ROSSA ITALIANA,,38.155043329999998,13.320043330000001,1,,,,Europe/Rome,1
1242,1242,NICOLETTI - PIAZZA BOLIVAR,,38.189025923333332,13.296653636666669,1,,,,Europe/Rome,1
1243,1243,NICOLETTI - PIAZZA BOLIVAR,,38.188852689999997,13.29709594,1,,,,Europe/Rome,1
1244,1244,NICOLETTI - T.S. 49,,38.193423180000003,13.286192209999999,1,,,,Europe/Rome,1
1246,1246,NICOLETTI,,38.191073590000002,13.29122048,1,,,,Europe/Rome,1
1247,1247,NINA SICILIANA - PARCHEGGIO EMIRI,,38.115973330000003,13.332043329999999,1,,,40000, ,1
1248,1248,NINA SICILIANA - PERPIGNANO,,38.118582100000012,13.331438450000006,1,,,,Europe/Rome,1
1249,1249,NINA SICILIANA - SCUOLA LA TORRE,,38.116386669999997,13.331923329999999,1,,,40000, ,1
125,125,AQUINO MOLARA - GALATI,,38.080378519999996,13.305827320000001,1,,,,Europe/Rome,1
1250,1250,NISO,,38.205646569999999,13.318335210000001,1,,,,Europe/Rome,1
1253,1253,NOCE - LITTARA,,38.12115859,13.33528742,1,,,,Europe/Rome,1
1254,1254,NOCE - LITTARA,,38.121006659999999,13.33555833,1,,,,Europe/Rome,1
1255,1255,NOTARBARTOLO - DI MARIA,,38.131982669999999,13.34291428,1,,,,Europe/Rome,1
1256,1256,NOTARBARTOLO - MORELLO,,38.132473330000003,13.344875,1,,,,Europe/Rome,1
1257,1257,NOTARBARTOLO - PETRARCA,,38.133184999999997,13.34764667,1,,,,Europe/Rome,1
1258,1258,NOTARBARTOLO - PETRARCA,,38.133208099999997,13.347550249999999,1,,,,Europe/Rome,1
1259,1259,NOTARBARTOLO - SCIUTI,,38.132290969999993,13.343936539999994,1,,,,Europe/Rome,1
1260,1260,OLIMPO - ASPASIA,,38.188849470000001,13.31199148,1,,,,Europe/Rome,1
1261,1261,OLIMPO - CASTELFORTE,,38.18889025,13.32078338,1,,,,Europe/Rome,1
1262,1262,OLIMPO - CASTELFORTE,,38.18903255,13.320198660000001,1,,,,Europe/Rome,1
1263,1263,OLIMPO - CHIRONE,,38.188864080000002,13.307592380000001,1,,,,Europe/Rome,1
1264,1264,OLIMPO - CHIRONE,,38.189097830000001,13.30680473,1,,,,Europe/Rome,1
1265,1265,OLIMPO - EURIPIDE,,38.189114660000001,13.30427581,1,,,,Europe/Rome,1
1266,1266,OLIMPO - PALASPORT,,38.188881819999999,13.31674933,1,,,,Europe/Rome,1
1267,1267,OLIMPO - PALASPORT,,38.189062059999998,13.31676006,1,,,,Europe/Rome,1
1268,1268,OLIMPO - VILLA SCALEA,,38.188895989999999,13.302389010000001,1,,,,Europe/Rome,1
1269,1269,OLIMPO - VILLA SCALEA,,38.189112950000002,13.301399590000001,1,,,,Europe/Rome,1
1270,1270,OLIMPO,,38.188877009999999,13.30490492,1,,,,Europe/Rome,1
1271,1271,OLIMPO,,38.189082630000001,13.31236573,1,,,,Europe/Rome,1
1272,1272,OLIO DI LINO - MOLARA,,38.078594680000002,13.313582970000001,1,,,,Europe/Rome,1
1273,1273,OLIO DI LINO - MOLARA,,38.078491130000003,13.313672929999999,1,,,,Europe/Rome,1
1274,1274,OLIO DI LINO 1,,38.084987890000001,13.32635571,1,,,,Europe/Rome,1
1275,1275,OLIO DI LINO 10,,38.080823199999998,13.31887633,1,,,,Europe/Rome,1
1276,1276,OLIO DI LINO 11,,38.081230669999997,13.320705589999999,1,,,,Europe/Rome,1
1279,1279,OLIO DI LINO 14,,38.084941219999997,13.326423050000001,1,,,,Europe/Rome,1
128,128,ARCHIRAFI - TIRO A SEGNO,,38.108917329999997,13.37416696,1,,,,Europe/Rome,1
1282,1282,OLIO DI LINO 4,,38.081302460000003,13.320698889999999,1,,,,Europe/Rome,1
1283,1283,OLIO DI LINO 5,,38.080879150000001,13.31893936,1,,,,Europe/Rome,1
1288,1288,ORETO - BERGAMO,,38.104869999999998,13.368394999999994,1,,,,Europe/Rome,1
1289,1289,ORETO - BERGAMO,,38.104356670000008,13.368816669999999,1,,,,Europe/Rome,1
1290,1290,ORETO - BUONRIPOSO,,38.099753329999999,13.37178333,1,,,,Europe/Rome,1
1291,1291,ORETO - BUONRIPOSO,,38.100141669999985,13.371565000000002,1,,,,Europe/Rome,1
1292,1292,ORETO - CONCORDIA,,38.09836,13.372778329999996,1,,,,Europe/Rome,1
1293,1293,ORETO - ERRANTE,,38.108127997500006,13.366312092500001,1,,,,Europe/Rome,1
1294,1294,ORETO - ERRANTE,,38.107522759999995,13.36677411,1,,,,Europe/Rome,1
1295,1295,ORETO - LA COLLA,,38.100659999999991,13.371164999999998,1,,,,Europe/Rome,1
1296,1296,ORETO - LA COLLA,,38.10101667,13.371004999999998,1,,,,Europe/Rome,1
1297,1297,ORETO - LO BIANCO,,38.095530990000022,13.374454379999989,1,,,,Europe/Rome,1
1298,1298,ORETO - LO BIANCO,,38.09541033,13.37465057,1,,,,Europe/Rome,1
1299,1299,ORETO - MENDOLA,,38.106616822500001,13.367254122500004,1,,,,Europe/Rome,1
13,13,ACC. A29 MONTE 3,,38.17653679,13.2946948,1,,,,Europe/Rome,1
130,130,ARCULEO,,38.117278329999998,13.33356833,1,,,,Europe/Rome,1
1300,1300,ORETO - MENDOLA,,38.106151670000017,13.367686670000005,1,,,,Europe/Rome,1
1301,1301,ORETO - ORSA MINORE,,38.096871369999995,13.373583999999996,1,,,,Europe/Rome,1
1302,1302,ORETO - ORSA MINORE,,38.096826204999999,13.373727550000002,1,,,,Europe/Rome,1
1303,1303,ORETO - ORSA MINORE - O.S.6,,38.097589999999997,13.37302,1,,,,Europe/Rome,1
1304,1304,ORETO - ORSI,,38.094346849999987,13.375210489999988,1,,,,Europe/Rome,1
1305,1305,ORETO - REGIONE SICILIANA,,38.092417800000014,13.376487629999991,1,,,,Europe/Rome,1
1307,1307,ORETO - S. ANTONINO,,38.109155279999996,13.365612480000003,1,,,,Europe/Rome,1
1308,1308,ORETO - SIRILLO,,38.094028049999999,13.37552324,1,,,,Europe/Rome,1
1309,1309,ORSA MAGGIORE - CAPRICORNO,,38.093820000000001,13.36336,1,,,,Europe/Rome,1
131,131,ARTALE,,38.099816670000003,13.348039999999999,1,,,,Europe/Rome,1
1310,1310,ORSA MAGGIORE - CAPRICORNO,,38.093724080000001,13.363199829999999,1,,,,Europe/Rome,1
1311,1311,ORSA MAGGIORE - ORSA MINORE,,38.093901670000001,13.365170000000001,1,,,,Europe/Rome,1
1312,1312,ORSA MAGGIORE - ORSA MINORE,,38.093796910000002,13.364860119999999,1,,,,Europe/Rome,1
1314,1314,ORSA MINORE - ALBIRI,,38.090721260000002,13.365532010000003,1,,,,Europe/Rome,1
1316,1316,ORSA MINORE - CHIAVELLI,,38.094836669999999,13.367986670000001,1,,,,Europe/Rome,1
1317,1317,ORSA MINORE - CHIAVELLI,,38.095557379999967,13.369275030000004,1,,,,Europe/Rome,1
1318,1318,ORSA MINORE - ORETO,,38.096879999999999,13.372178330000001,1,,,,Europe/Rome,1
1319,1319,ORSA MINORE - ORETO,,38.096890450000032,13.372451129999989,1,,,,Europe/Rome,1
132,132,ARTIGLIERE,,38.146048329999992,13.34280167,1,,,,Europe/Rome,1
1320,1320,ORSA MINORE - ORSA MAGGIORE,,38.092673900000008,13.365663439999999,1,,,,Europe/Rome,1
1321,1321,ORSA MINORE - S. M. DI GESU',,38.096194869999998,13.370152860000001,1,,,,Europe/Rome,1
1322,1322,ORSA MINORE - S. M. DI GESU',,38.096485170000037,13.371045649999999,1,,,,Europe/Rome,1
1323,1323,ORSA MINORE,,38.094189530000001,13.367115850000003,1,,,,Europe/Rome,1
1324,1324,ORSA MINORE,,38.094131670000003,13.36674833,1,,,,Europe/Rome,1
1326,1326,OSPEDALE CERVELLO,,38.154240000000001,13.313154999999997,1,,,,Europe/Rome,1
1327,1327,OSPEDALE CIVICO,,38.103674210000001,13.35529,1,,,,Europe/Rome,1
1328,1328,PACINOTTI,,38.129252530000002,13.335101010000001,1,,,,Europe/Rome,1
133,133,ARTIGLIERE,,38.146190750000002,13.34276919,1,,,,Europe/Rome,1
1337,1337,PALADINI - BARISANO DA TRANI,,38.136003330000001,13.30887667,1,,,,Europe/Rome,1
1339,1339,PALADINI - BERRETTARO,,38.137223329999998,13.30804167,1,,,,Europe/Rome,1
1340,1340,PALADINI - MICHELANGELO,,38.134289639999999,13.30958895,1,,,,Europe/Rome,1
1341,1341,PALERMO,,38.105303370000001,13.363383820000001,1,,,,Europe/Rome,1
1342,1342,PALERMO - CAMPING,,38.198555489999997,13.254125,1,,,,Europe/Rome,1
1343,1343,PALERMO - CAMPING,,38.198490149999998,13.25452879,1,,,,Europe/Rome,1
1344,1344,PALERMO - PIANO LEVANTE,,38.198592650000002,13.25100602,1,,,,Europe/Rome,1
135,135,ATLANTE - IFIGENIA,,38.197523680000003,13.31213996,1,,,,Europe/Rome,1
1350,1350,PANEPINTO,,38.083263270000003,13.36200021,1,,,,Europe/Rome,1
1351,1351,PANEPINTO - GIRAFFA,,38.083743040000002,13.36134508,1,,,,Europe/Rome,1
1354,1354,PANTALICA - TINDARI,,38.128783079999998,13.292986300000001,1,,,,Europe/Rome,1
1355,1355,PANTALICA - ZANCLE,,38.126656279999999,13.292762339999999,1,,,,Europe/Rome,1
1356,1356,PANTALICA - ZANCLE,,38.126521250000003,13.292649689999999,1,,,,Europe/Rome,1
1357,1357,PAPA GIOVANNI XXIII - BASSOTTO,,38.085130079999999,13.36199015,1,,,,Europe/Rome,1
1358,1358,PAPA GIOVANNI XXIII - ERMELLINO,,38.086088539999999,13.3615087,1,,,,Europe/Rome,1
1359,1359,PAPA SERGIO - BOSCO,,38.14881832999999,13.370841670000003,1,,,,Europe/Rome,1
136,136,ATLANTE - PIAZZA DELLA SERENITA',,38.197879999999998,13.310499999999999,1,,,,Europe/Rome,1
1360,1360,PAPA SERGIO - BOSCO,,38.14780167,13.370596669999999,1,,,,Europe/Rome,1
1361,1361,PAPA SERGIO - CHIMICA ARENELLA,,38.157184999999998,13.370875,1,,,,Europe/Rome,1
1362,1362,PAPA SERGIO - CHIMICA ARENELLA,,38.156314999999999,13.37069833,1,,,,Europe/Rome,1
1363,1363,PAPA SERGIO - DI LEO,,38.150388329999998,13.37075667,1,,,,Europe/Rome,1
1364,1364,PAPA SERGIO - DI LEO,,38.14972667,13.370746670000001,1,,,,Europe/Rome,1
1365,1365,PAPA SERGIO - LAVITRANO,,38.15451607,13.37056518,1,,,,Europe/Rome,1
1366,1366,PAPA SERGIO - LAVITRANO,,38.154235,13.37053667,1,,,,Europe/Rome,1
1367,1367,PAPA SERGIO - OSPEDALE ALBANESE,,38.146886670000008,13.370388329999999,1,,,,Europe/Rome,1
1368,1368,PAPA SERGIO - OSPEDALE ALBANESE,,38.146296669999998,13.37008333,1,,,,Europe/Rome,1
1369,1369,PAPA SERGIO - TONNARA,,38.151746709999998,13.370739520000001,1,,,,Europe/Rome,1
137,137,AUGUSTA - CENTURIPE,,38.131505850000003,13.2918705,1,,,,Europe/Rome,1
1370,1370,PAPA SERGIO - TONNARA,,38.15145167,13.370695,1,,,,Europe/Rome,1
1371,1371,PAPA SERGIO - VILLA IGIEA,,38.145661670000003,13.36998833,1,,,,Europe/Rome,1
1373,1373,PAPIRETO - PIAZZA DEL NOVIZIATO,,38.11679333,13.351971669999999,1,,,,Europe/Rome,1
1377,1377,PARCHEGGIO BASILE CORSIA ESTERNA,,38.09775320571427,13.345455145714293,1,,,30000, ,1
1378,1378,PARCHEGGIO BASILE CORSIA INTERNA,,38.097883330000045,13.345336670000018,1,,,30000, ,1
1379,1379,PARCHEGGIO DEGLI EMIRI,,38.116381670000003,13.331681670000009,1,,,40000, ,1
1380,1380,PARCHEGGIO GALATEA,,38.201286670000002,13.3232,1,,,,Europe/Rome,1
1381,1381,PARCHEGGIO GALATEA,,38.201039999999999,13.32267,1,,,,Europe/Rome,1
1382,1382,PARCHEGGIO MONGIBELLO ALTO,,38.207197270000002,13.321913929999999,1,,,,Europe/Rome,1
1383,1383,PARCHEGGIO MONGIBELLO BASSO,,38.207068700000001,13.322845989999999,1,,,,Europe/Rome,1
1384,1384,PARISIO - FALCANDO,,38.125806670000003,13.33747,1,,,,Europe/Rome,1
1386,1386,PARISIO - LANCIA DI BROLO,,38.125052359999998,13.33427975,1,,,,Europe/Rome,1
1387,1387,PARLATORE - ADRIA,,38.125111670000003,13.343640000000001,1,,,,Europe/Rome,1
1388,1388,PARLATORE - AURISPA,,38.126604999999991,13.34307667,1,,,,Europe/Rome,1
1389,1389,PARLATORE - DANTE,,38.123151559999997,13.344337189999999,1,,,,Europe/Rome,1
1390,1390,PARLAVECCHIO - S. ORSOLA,,38.101578330000002,13.36117,1,,,,Europe/Rome,1
1392,1392,PARLAVECCHIO - TRICOMI,,38.100931670000001,13.36022167,1,,,,Europe/Rome,1
1393,1393,PARTANNA MONDELLO - AMARILLI,,38.195384130000001,13.306412099999999,1,,,,Europe/Rome,1
1395,1395,PARTANNA MONDELLO - CHIMERA,,38.19445005,13.304777550000001,1,,,,Europe/Rome,1
1396,1396,PARTANNA MONDELLO - CHIMERA,,38.19461098,13.304893829999999,1,,,,Europe/Rome,1
1397,1397,PARTANNA MONDELLO - DIONISO,,38.195336910000002,13.30650878,1,,,,Europe/Rome,1
1398,1398,PARTANNA MONDELLO - DIONISO,,38.19612927,13.3082618,1,,,,Europe/Rome,1
1399,1399,PARTANNA MONDELLO - IANDOLINO,,38.196003330000003,13.308166670000002,1,,,,Europe/Rome,1
14,14,ACC. A29 MONTE 4,,38.166157339999998,13.304479219999999,1,,,,Europe/Rome,1
140,140,AUGUSTA - PIAZZA S. PAOLO,,38.130046900000004,13.292256739999999,1,,,,Europe/Rome,1
1400,1400,PARTANNA MONDELLO - MATOTTA,,38.192857250000003,13.30231987,1,,,,Europe/Rome,1
1401,1401,PARTANNA MONDELLO - MATOTTA,,38.192908869999997,13.302229560000001,1,,,,Europe/Rome,1
1402,1402,PARTANNA MONDELLO - PIAZZA BOLIVAR,,38.191478920000002,13.30107609,1,,,,Europe/Rome,1
1403,1403,PARTANNA MONDELLO - SCORDIA,,38.191535100000003,13.30098521,1,,,,Europe/Rome,1
141,141,AURISPA - MERENDA,,38.12637282,13.340089710000001,1,,,,Europe/Rome,1
1412,1412,PASQUALE CALVI,,38.130355399999992,13.354937610000004,1,,,,Europe/Rome,1
1416,1416,PATERNOSTRO - VILLAFRANCA,,38.12332353,13.35370883,1,,,,Europe/Rome,1
142,142,AURISPA - MERENDA,,38.126510690000003,13.34042653,1,,,,Europe/Rome,1
1437,1437,PERPIGNANO - ANAPO,,38.119994679999998,13.32157101,1,,,,Europe/Rome,1
1438,1438,PERPIGNANO - ARCULEO,,38.118936669999997,13.334,1,,,,Europe/Rome,1
1440,1440,PERPIGNANO - D'AQUINO,,38.119042120000003,13.334917280000001,1,,,,Europe/Rome,1
1441,1441,PERPIGNANO - D'AQUINO,,38.119173330000002,13.335416670000001,1,,,,Europe/Rome,1
1442,1442,PERPIGNANO - FIUMEFREDDO,,38.119673579999997,13.325881799999999,1,,,,Europe/Rome,1
1443,1443,PERPIGNANO - JATO,,38.119979360000002,13.323401670000001,1,,,,Europe/Rome,1
1445,1445,PERPIGNANO - POLITO,,38.119298499999999,13.33664864,1,,,,Europe/Rome,1
1446,1446,PERPIGNANO - POLITO,,38.119380329999998,13.33696426,1,,,,Europe/Rome,1
1447,1447,PERPIGNANO - REGIONE SICILIANA,,38.119422020000002,13.32796398,1,,,,Europe/Rome,1
1448,1448,PERPIGNANO - RUGGERONE DA PALERMO,,38.118996789999997,13.332121949999999,1,,,,Europe/Rome,1
1449,1449,PIANO LEVANTE,,38.19845643,13.25067982,1,,,,Europe/Rome,1
145,145,AUSONIA - BRIUCCIA,,38.151445000000002,13.33319,1,,,,Europe/Rome,1
1451,1451,PIAZZA ACQUASANTA MONTE,,38.143682679999998,13.36743236,1,,,,Europe/Rome,1
1452,1452,PIAZZA ACQUASANTA VALLE,,38.143709899999998,13.36756203,1,,,,Europe/Rome,1
1453,1453,PIAZZA AMENDOLA,,38.122648329999997,13.35121833,1,,,,Europe/Rome,1
1456,1456,PIAZZA ARMERINA - ISPICA,,38.129834685000006,13.29593874,1,,,,Europe/Rome,1
1458,1458,PIAZZA ARMERINA - MOZIA,,38.130074810000004,13.29713237,1,,,,Europe/Rome,1
146,146,AUSONIA - POSTE,,38.15031982,13.33420896,1,,,,Europe/Rome,1
1462,1462,PIAZZA BAIDA,,38.114245529999998,13.296163379999998,1,,,,Europe/Rome,1
1464,1464,PIAZZA BOIARDO,,38.132498120000015,13.342565949999996,1,,,,Europe/Rome,1
1465,1465,PIAZZA BORDONARO,,38.165574999999997,13.367525000000001,1,,,,Europe/Rome,1
1466,1466,PIAZZA BORDONARO,,38.165430000000008,13.368390000000002,1,,,,Europe/Rome,1
1467,1467,PIAZZA CAMPOREALE,,38.120094029999997,13.340256210000003,1,,,,Europe/Rome,1
1469,1469,PIAZZA DELLA PACE,,38.131927810000001,13.360099200000001,1,,,,Europe/Rome,1
147,147,AUTONOMIA SICILIANA - D'AMELIO,,38.142645190000003,13.35597181,1,,,,Europe/Rome,1
1470,1470,PIAZZA DELLA PACE,,38.13137047,13.35999876,1,,,,Europe/Rome,1
1471,1471,PIAZZA DELLA SERENITA',,38.198151670000009,13.309570000000004,1,,,,Europe/Rome,1
1472,1472,PIAZZA DON STURZO,,38.126275,13.35756333,1,,,80000, ,1
1473,1473,PIAZZA EISTEIN,,38.128986670000003,13.3285,1,,,,Europe/Rome,1
1474,1474,PIAZZA G.LE TURBA,,38.100766669999999,13.338478329999999,1,,,,Europe/Rome,1
1477,1477,PIAZZA LAMPADA DELLA FRATERNITA',,38.145183330000002,13.31535,1,,,,Europe/Rome,1
1478,1478,PIAZZA MANDORLE,,38.18840221,13.2893157,1,,,,Europe/Rome,1
1480,1480,PIAZZA MICCA,,38.109374824999996,13.308481414999999,1,,,,Europe/Rome,1
1482,1482,PIAZZA MOLARA,,38.081631809999998,13.30971658,1,,,,Europe/Rome,1
1483,1483,PIAZZA MOLARA,,38.081554750000002,13.30969513,1,,,,Europe/Rome,1
1484,1484,PIAZZA MONDELLO,,38.207937040000004,13.32690015,1,,,,Europe/Rome,1
1485,1485,PIAZZA MONDELLO,,38.207494439999998,13.326890770000004,1,,,,Europe/Rome,1
1486,1486,PIAZZA MORDINI,,38.129945679999999,13.35176341,1,,,70000, ,1
1487,1487,PIAZZA NISCEMI,,38.163748779999999,13.332443639999999,1,,,,Europe/Rome,1
1488,1488,PIAZZA NISCEMI,,38.163505659999998,13.332503600000001,1,,,,Europe/Rome,1
1489,1489,PIAZZA NOCE,,38.121697719999993,13.333731740000001,1,,,,Europe/Rome,1
149,149,AUTONOMIA SICILIANA - FERRI,,38.1417413,13.35382442,1,,,,Europe/Rome,1
1490,1490,PIAZZA NOCE,,38.121679790000002,13.3336097,1,,,,Europe/Rome,1
1491,1491,PIAZZA PAGLIARELLI,,38.090468219999998,13.33144044,1,,,,Europe/Rome,1
1492,1492,PIAZZA PAPA GIOVANNI PAOLO II,,38.152427980000049,13.337734940000011,1,,,,Europe/Rome,1
1494,1494,PIAZZA PRETORIA,,38.11470241,13.362045139999999,1,,,,Europe/Rome,1
1496,1496,PIAZZA S. CRISTINA - TINDARI,,38.129326470000002,13.298389609999999,1,,,,Europe/Rome,1
1499,1499,PIAZZA SAN FRANCESCO DI PAOLA,,38.12124721,13.35317373,1,,,,Europe/Rome,1
15,15,ACC. A29 VALLE - COSTANTINO,,38.175444509999998,13.296135720000001,1,,,,Europe/Rome,1
1500,1500,PIAZZA TOMMASO NATALE,,38.190238399999998,13.285528419999997,1,,,,Europe/Rome,1
1501,1501,PIAZZA TOMMASO NATALE - PIAZZA MANDORLE,,38.188523089999997,13.287968180000005,1,,,,Europe/Rome,1
1502,1502,PIAZZA TOMMASO NATALE - PIAZZA MANDORLE,,38.18839693999999,13.288021539999992,1,,,,Europe/Rome,1
1503,1503,PIAZZA TOMMASO NATALE - STAZIONE FS,,38.189655780000002,13.28622711,1,,,,Europe/Rome,1
1504,1504,PIAZZA TOMMASO NATALE - STAZIONE FS,,38.189320310000021,13.286559730000008,1,,,,Europe/Rome,1
1505,1505,PIAZZA VERDI,,38.120971419999996,13.35734705,1,,,,Europe/Rome,1
1506,1506,PIAZZA VILLACIAMBRA,,38.05950885,13.317830259999999,1,,,,Europe/Rome,1
1507,1507,PIAZZA VILLACIAMBRA,,38.059234410000002,13.31754164,1,,,,Europe/Rome,1
151,151,BACHELET 1,,38.086031669999997,13.33321479,1,,,,Europe/Rome,1
1510,1510,PIAZZA ZIINO,,38.13112675,13.339225089999999,1,,,,Europe/Rome,1
1511,1511,PIAZZALE JOHN LENNON 103,,38.131919259999997,13.33098416,1,,,50000, ,1
1512,1512,PIAZZALE JOHN LENNON 110,,38.132076550000001,13.331017340000001,1,,,50000, ,1
1514,1514,PIAZZALE JOHN LENNON 134,,38.131946800000001,13.331002590000001,1,,,50000, ,1
1516,1516,PIAZZALE JOHN LENNON 513,,38.131727380000001,13.33097175,1,,,50000, ,1
1518,1518,PIAZZALE JOHN LENNON 529,,38.131675690000002,13.330962359999999,1,,,50000, ,1
1519,1519,PIAZZALE JOHN LENNON 534,,38.131617669999997,13.33095297,1,,,50000, ,1
152,152,BACHELET 2,,38.08748233,13.33511987,1,,,,Europe/Rome,1
1521,1521,PIAZZALE JOHN LENNON 544,,38.131555429999999,13.33095297,1,,,50000, ,1
1523,1523,PIAZZALE JOHN LENNON MONTE,,38.131798439999997,13.330655249999989,1,,,50000, ,1
1528,1528,PICCIOTTI - D'AOSTA,,38.103338970000003,13.385420140000001,1,,,,Europe/Rome,1
1537,1537,PIGNATELLI ARAGONA,,38.120911669999998,13.356400000000001,1,,,,Europe/Rome,1
1538,1538,PISACANE,,38.108904140000007,13.362816269999998,1,,,,Europe/Rome,1
1539,1539,PISANI - CATALANO,,38.105321770000003,13.342932810000001,1,,,,Europe/Rome,1
1542,1542,PISANI - INDIPENDENZA,,38.109080220000003,13.34972151,1,,,,Europe/Rome,1
1544,1544,PISANI - INGRIA,,38.10648656,13.34499031,1,,,,Europe/Rome,1
1546,1546,PISANI - ONORATO,,38.107039520000001,13.346904070000001,1,,,,Europe/Rome,1
1547,1547,PITRE' - AEROCLUB,,38.109446519999999,13.312170800000001,1,,,,Europe/Rome,1
1548,1548,PITRE' - AEROCLUB,,38.109461670000002,13.311310000000001,1,,,,Europe/Rome,1
1549,1549,PITRE' - ALTARELLO,,38.110461669999999,13.336315000000001,1,,,,Europe/Rome,1
1550,1550,PITRE' - CAMARDA,,38.110400439999999,13.33632141,1,,,,Europe/Rome,1
1551,1551,PITRE' - CAMARDA,,38.11048589,13.33373102,1,,,,Europe/Rome,1
1552,1552,PITRE' - GENERALE SALEMI,,38.110431669999997,13.334104999999999,1,,,,Europe/Rome,1
1554,1554,PITRE' - MADONNA DEL SOCCORSO,,38.110550000000003,13.325424999999999,1,,,,Europe/Rome,1
1555,1555,PITRE' - MADONNA DEL SOCCORSO,,38.110533330000003,13.324400000000001,1,,,,Europe/Rome,1
1556,1556,PITRE' - PALCHETTO,,38.110481669999999,13.33153667,1,,,,Europe/Rome,1
1557,1557,PITRE' - PALCHETTO,,38.110514999999999,13.331426670000001,1,,,,Europe/Rome,1
1558,1558,PITRE' - PIAZZA MICCA,,38.10923167,13.30977833,1,,,,Europe/Rome,1
1559,1559,PITRE' - PINDEMONTE,,38.110571669999999,13.339463329999999,1,,,,Europe/Rome,1
1560,1560,PITRE' - PINDEMONTE,,38.11056,13.33883333,1,,,,Europe/Rome,1
1563,1563,PITRE' - SCUOLA BONANNO,,38.110521669999997,13.32821832,1,,,,Europe/Rome,1
1564,1564,PITRE' - SCUOLA BONANNO,,38.110553330000002,13.32804,1,,,,Europe/Rome,1
1566,1566,PITRE' - VILLA GRIFFOTTA,,38.109750429999998,13.31581458,1,,,,Europe/Rome,1
1567,1567,PITRE' - VILLA GRIFFOTTA,,38.109796670000001,13.31526833,1,,,,Europe/Rome,1
1569,1569,PITRE' 2,,38.110014999999997,13.318986669999999,1,,,,Europe/Rome,1
1570,1570,PITRE' 3,,38.110353330000002,13.322939999999999,1,,,,Europe/Rome,1
1571,1571,PITRE' 5,,38.110365000000002,13.322276670000001,1,,,,Europe/Rome,1
1572,1572,PITRE' 6,,38.110043330000003,13.31827333,1,,,,Europe/Rome,1
1573,1573,PLAUTO - BAIA DEL CORALLO,,38.199412340000002,13.269704730000001,1,,,,Europe/Rome,1
1574,1574,PLAUTO - BAIA DEL CORALLO,,38.199042409999997,13.270133880000001,1,,,,Europe/Rome,1
1575,1575,PLAUTO - FLORIO,,38.19876,13.270606670000003,1,,,,Europe/Rome,1
1576,1576,PLAUTO - FLORIO,,38.198406669999997,13.270986669999999,1,,,,Europe/Rome,1
1577,1577,PLAUTO - LEONE,,38.19782833,13.272341670000001,1,,,,Europe/Rome,1
1578,1578,POLIBIO - AMARILLI,,38.197310000000002,13.307,1,,,,Europe/Rome,1
1579,1579,POLIBIO - EOLO,,38.197834999999998,13.308590000000001,1,,,,Europe/Rome,1
1580,1580,POLITEAMA,,38.124655814,13.355585636000006,1,,,,Europe/Rome,1
1581,1581,POLITEAMA - AMARI,,38.12501366,13.357438450000002,1,,,80000, ,1
1582,1582,POLITEAMA - TURATI,,38.12550029000009,13.356494310000011,1,,,80000, ,1
1583,1583,POLLACI,,38.103552579999999,13.3296499,1,,,,Europe/Rome,1
1584,1584,POMARA - BELVEDERE,,38.085040000000006,13.433549999999999,1,,,,Europe/Rome,1
1585,1585,POMARA - BELVEDERE,,38.085518330000006,13.433468329999998,1,,,,Europe/Rome,1
1586,1586,POMARA - FIGURELLA,,38.082571670000021,13.434236670000006,1,,,,Europe/Rome,1
1587,1587,POMARA - NOVELLI,,38.083559360000002,13.433940410000002,1,,,,Europe/Rome,1
1590,1590,PONTE DI MARE - S. ERASMO,,38.111687789999998,13.378397230000001,1,,,,Europe/Rome,1
1591,1591,PONTE DI MARE - S. ERASMO,,38.111490000000003,13.378508330000001,1,,,,Europe/Rome,1
1593,1593,PONTE ORETO,,38.103108560000003,13.36957142,1,,,,Europe/Rome,1
1595,1595,PORTA FELICE,,38.119421950000003,13.371081500000001,1,,,,Europe/Rome,1
16,16,ACC. A29 VALLE - POSTE,,38.16714692,13.3051694,1,,,,Europe/Rome,1
1602,1602,PRINCIPE DI PALAGONIA - CARCERE MINORILE,,38.133951670000002,13.33656167,1,,,,Europe/Rome,1
1603,1603,PRINCIPE DI SCALEA - AMAP,,38.199539409999993,13.32716358142858,1,,,,Europe/Rome,1
1604,1604,PRINCIPE DI SCALEA - GALATEA,,38.201302532857177,13.325523274285722,1,,,,Europe/Rome,1
1605,1605,PRINCIPE DI SCALEA - MONDELLO,,38.204691830000073,13.324104967777762,1,,,,Europe/Rome,1
1606,1606,PRINCIPE DI SCALEA - OLEANDRI,,38.198370452857162,13.328489749999992,1,,,,Europe/Rome,1
1607,1607,PRINCIPE DI SCALEA - VALDESI,,38.196955002857173,13.331023571428569,1,,,,Europe/Rome,1
1608,1608,PROTEZIONE CIVILE,,38.155884999999998,13.344538330000001,1,,,,Europe/Rome,1
1609,1609,PUGLISI BERTOLINO,,38.1267104,13.357304910000003,1,,,,Europe/Rome,1
161,161,BARCARELLO 1,,38.20467,13.280885,1,,,,Europe/Rome,1
1610,1610,PUNTA BARCARELLO,,38.208570000000002,13.28244333,1,,,,Europe/Rome,1
1611,1611,PUNTA BARCARELLO,,38.208486669999999,13.282350000000001,1,,,,Europe/Rome,1
1612,1612,R.T. MARCONI,,38.201418330000017,13.26768167,1,,,,Europe/Rome,1
1613,1613,RABIN - AMMIRAGLIO RIZZO,,38.14375862,13.35747868,1,,,,Europe/Rome,1
1615,1615,RABIN - SCALA VECCHIA,,38.146793330000001,13.35702167,1,,,,Europe/Rome,1
1619,1619,RAMPOLLA - BONANNO,,38.147528129999998,13.3660537,1,,,,Europe/Rome,1
162,162,BARCARELLO 2,,38.206386670000001,13.282455000000001,1,,,,Europe/Rome,1
1621,1621,RAMPOLLA - MONTINI,,38.145781560000003,13.367951359999999,1,,,,Europe/Rome,1
1622,1622,RE RUGGERO,,38.109146840000001,13.353746380000006,1,,,,Europe/Rome,1
1624,1624,REGINA ELENA - CIRCE,,38.203604262222186,13.325529814444435,1,,,,Europe/Rome,1
1625,1625,REGINA ELENA - COMMISSARIATO P.S.,,38.198498257499992,13.32978409249999,1,,,,Europe/Rome,1
1626,1626,REGINA ELENA - DELLE ROSE,,38.200943428749959,13.327225231249994,1,,,,Europe/Rome,1
1627,1627,REGINA ELENA - IRIS,,38.19975553999997,13.328346517499984,1,,,,Europe/Rome,1
1629,1629,REGINA ELENA - STABILIMENTO,,38.202842065555501,13.326198947777776,1,,,,Europe/Rome,1
163,163,BARCARELLO 3,,38.206564980000003,13.282410349999999,1,,,,Europe/Rome,1
1630,1630,REGINA ELENA - TETI,,38.205107965555534,13.32509500000001,1,,,,Europe/Rome,1
1631,1631,REGINA ELENA - VALDESI,,38.197505235000001,13.331062611250013,1,,,,Europe/Rome,1
1632,1632,REGIONE SICILIANA - ALOI,,38.086661220000003,13.353487599999999,1,,,,Europe/Rome,1
1633,1633,REGIONE SICILIANA - ALOI,,38.086354669999999,13.350008830000005,1,,,,Europe/Rome,1
1634,1634,REGIONE SICILIANA - ALTOFONTE,,38.096069110000002,13.336514579999999,1,,,,Europe/Rome,1
1635,1635,REGIONE SICILIANA - ALTOFONTE,,38.096517220000003,13.335016380000001,1,,,,Europe/Rome,1
1636,1636,REGIONE SICILIANA - ATENASIO,,38.148456899999999,13.32588245,1,,,,Europe/Rome,1
1638,1638,REGIONE SICILIANA - BELGIO,,38.15025,13.324079999999999,1,,,,Europe/Rome,1
1639,1639,REGIONE SICILIANA - BERNINI,,38.131299910000003,13.32974969,1,,,,Europe/Rome,1
164,164,BARCARELLO 4,,38.204783999999997,13.280964640000001,1,,,,Europe/Rome,1
1640,1640,REGIONE SICILIANA - BRASA,,38.095155220000002,13.336846359999999,1,,,,Europe/Rome,1
1641,1641,REGIONE SICILIANA - CALATAFIMI,,38.10206488,13.330819269999999,1,,,,Europe/Rome,1
1644,1644,REGIONE SICILIANA - CHIAVELLI,,38.08868133,13.3691294,1,,,,Europe/Rome,1
1645,1645,REGIONE SICILIANA - CHIAVELLI,,38.089356220000006,13.370090729999994,1,,,,Europe/Rome,1
1646,1646,REGIONE SICILIANA - CINGALLEGRA,,38.088389630000002,13.359771970000001,1,,,,Europe/Rome,1
1647,1647,REGIONE SICILIANA - CINGALLEGRA,,38.087809999999998,13.35844552,1,,,,Europe/Rome,1
1648,1648,REGIONE SICILIANA - D'ANNA,,38.096948660000002,13.335357189999998,1,,,,Europe/Rome,1
1649,1649,REGIONE SICILIANA - DE SALIBA,,38.13170945000001,13.330415360000002,1,,,,Europe/Rome,1
165,165,BARILLAI - S. SEBASTIANO,,38.120966689999996,13.36602852,1,,,,Europe/Rome,1
1650,1650,REGIONE SICILIANA - DE SANCTIS,,38.123376200000003,13.329447119999999,1,,,,Europe/Rome,1
1651,1651,REGIONE SICILIANA - DEI FIORI,,38.101679449999999,13.329872160000001,1,,,,Europe/Rome,1
1652,1652,REGIONE SICILIANA - DEL CIGNO,,38.08709056,13.356219429999999,1,,,,Europe/Rome,1
1653,1653,REGIONE SICILIANA - DEL CIGNO,,38.08690343,13.35545898,1,,,,Europe/Rome,1
1654,1654,REGIONE SICILIANA - DELLE MADONIE,,38.146345310000001,13.328734580000001,1,,,,Europe/Rome,1
1655,1655,REGIONE SICILIANA - DI BLASI,,38.121910669999998,13.329273699999995,1,,,,Europe/Rome,1
1656,1656,REGIONE SICILIANA - DI BLASI,,38.123641580000019,13.328879269999998,1,,,,Europe/Rome,1
1657,1657,REGIONE SICILIANA - DI GIORGI,,38.124957569999999,13.329025940000003,1,,,,Europe/Rome,1
1658,1658,REGIONE SICILIANA - GIOTTO,,38.130279010000002,13.33023255,1,,,,Europe/Rome,1
1659,1659,REGIONE SICILIANA - LA LOGGIA,,38.106220360000002,13.330506689999996,1,,,,Europe/Rome,1
1660,1660,REGIONE SICILIANA - LA MANNA,,38.12012833,13.329058120000003,1,,,,Europe/Rome,1
1661,1661,REGIONE SICILIANA - LEVRIERE 1,,38.089537999999976,13.366384790000001,1,,,,Europe/Rome,1
1662,1662,REGIONE SICILIANA - LEVRIERE 2,,38.090135560000014,13.364717030000003,1,,,,Europe/Rome,1
1664,1664,REGIONE SICILIANA - MANDALA',,38.146566460000003,13.32771745,1,,,,Europe/Rome,1
1665,1665,REGIONE SICILIANA - MAZZARELLO,,38.121645790000002,13.328653989999999,1,,,,Europe/Rome,1
1666,1666,REGIONE SICILIANA - MINEO,,38.135263330000001,13.330299119999999,1,,,,Europe/Rome,1
1667,1667,REGIONE SICILIANA - NAZARIO SAURO,,38.12531177000001,13.329658489999996,1,,,,Europe/Rome,1
167,167,BASILE - ANELLI,,38.095290489999996,13.341941039999998,1,,,,Europe/Rome,1
1670,1670,REGIONE SICILIANA - PALMERINO,,38.098514999999999,13.33284042,1,,,,Europe/Rome,1
1672,1672,REGIONE SICILIANA - PARATORE,,38.090842639999977,13.375189299999992,1,,,,Europe/Rome,1
1673,1673,REGIONE SICILIANA - PARCHEGGIO "DEGLI EMIRI",,38.116116669999997,13.32941333,1,,,,Europe/Rome,1
1674,1674,REGIONE SICILIANA - PERGUSA,,38.117538599999996,13.328647610000006,1,,,,Europe/Rome,1
1675,1675,REGIONE SICILIANA - PERPIGNANO,,38.117557660000003,13.329226459999999,1,,,,Europe/Rome,1
1676,1676,REGIONE SICILIANA - PERPIGNANO,,38.119844459999989,13.328466670000006,1,,,,Europe/Rome,1
1677,1677,REGIONE SICILIANA - PIAZZA EISTEIN,,38.127436777499994,13.329891069999997,1,,,,Europe/Rome,1
1678,1678,REGIONE SICILIANA - PIAZZA EISTEIN,,38.126611680000003,13.329212600000004,1,,,,Europe/Rome,1
1679,1679,REGIONE SICILIANA - PITRE',,38.109693329999999,13.330246669999998,1,,,,Europe/Rome,1
1680,1680,REGIONE SICILIANA - PLATANIA,,38.098803660000002,13.333460159999994,1,,,,Europe/Rome,1
1681,1681,REGIONE SICILIANA - POLLACI,,38.105929000000003,13.32994703,1,,,,Europe/Rome,1
1682,1682,REGIONE SICILIANA - PONTE CORLEONE,,38.091018329999997,13.343191669999998,1,,,,Europe/Rome,1
1683,1683,REGIONE SICILIANA - PONTE CORLEONE,,38.09068722,13.342968259999996,1,,,,Europe/Rome,1
1684,1684,REGIONE SICILIANA - PORTELLO,,38.112791669999986,13.329831669999997,1,,,,Europe/Rome,1
1685,1685,REGIONE SICILIANA - PRINCIPE DI PATERNO',,38.135353329999994,13.330925000000002,1,,,,Europe/Rome,1
1686,1686,REGIONE SICILIANA - S. FILIPPO,,38.090004779999987,13.363262029999992,1,,,,Europe/Rome,1
1689,1689,REGIONE SICILIANA - S. M. DI GESU',,38.090116549999991,13.373375729999994,1,,,,Europe/Rome,1
169,169,BASILE - ARTALE,,38.100324579999999,13.347098530000004,1,,,,Europe/Rome,1
1690,1690,REGIONE SICILIANA - SAN CIRO,,38.090548779999999,13.38301083,1,,,,Europe/Rome,1
1691,1691,REGIONE SICILIANA - SANTUARIO DI CRUILLAS,,38.13678445,13.330509559999999,1,,,,Europe/Rome,1
1692,1692,REGIONE SICILIANA - SARDEGNA,,38.144152869999999,13.33076443,1,,,,Europe/Rome,1
1694,1694,REGIONE SICILIANA - SS. MEDIATRICE,,38.100818769999997,13.33147568,1,,,,Europe/Rome,1
1697,1697,REGIONE SICILIANA - TRABUCCO 3,,38.154975,13.318264999999998,1,,,,Europe/Rome,1
1698,1698,REGIONE SICILIANA - TROINA,,38.089419219999989,13.361658799999994,1,,,,Europe/Rome,1
1699,1699,REGIONE SICILIANA - TROINA,,38.08934593,13.36168438,1,,,,Europe/Rome,1
17,17,ACC. A29 VALLE 1,,38.17104174,13.29995519,1,,,,Europe/Rome,1
1700,1700,REGIONE SICILIANA - VILLA TASCA,,38.099831340000001,13.33165151,1,,,,Europe/Rome,1
1701,1701,REGIONE SICILIANA - VILLAGRAZIA,,38.086472329999999,13.349852240000001,1,,,,Europe/Rome,1
1702,1702,REGIONE SICILIANA - VILLAGRAZIA,,38.087030329999997,13.349620670000004,1,,,,Europe/Rome,1
1704,1704,REGIONE SICILIANA,,38.152915129999997,13.320803780000002,1,,,,Europe/Rome,1
1705,1705,RESTIVO - DELLE MADONIE,,38.148554320000002,13.333381709999999,1,,,,Europe/Rome,1
1706,1706,RESTIVO - DELLE MADONIE,,38.148336,13.33340988,1,,,,Europe/Rome,1
1707,1707,RESTIVO - EMILIA,,38.144882950000003,13.335641470000001,1,,,,Europe/Rome,1
1708,1708,RESTIVO - EMILIA,,38.144993880000001,13.335482320000001,1,,,,Europe/Rome,1
1709,1709,RESTIVO - LAZIO,,38.14287264,13.336851149999999,1,,,,Europe/Rome,1
1710,1710,RESTIVO - SARDEGNA,,38.146746610000001,13.33446533,1,,,,Europe/Rome,1
1711,1711,RESTIVO - SARDEGNA,,38.146424930000002,13.334567249999999,1,,,,Europe/Rome,1
1712,1712,RESTIVO - UMBRIA,,38.143536070000003,13.33636299,1,,,,Europe/Rome,1
1713,1713,RESURREZIONE - DE CERVANTES,,38.166265000000003,13.32059667,1,,,,Europe/Rome,1
1714,1714,RESURREZIONE - DE CERVANTES,,38.166041669999998,13.320475,1,,,,Europe/Rome,1
1715,1715,RESURREZIONE - DUCA DEGLI ABRUZZI,,38.170371670000002,13.326565,1,,,,Europe/Rome,1
1716,1716,RESURREZIONE - DUCA DEGLI ABRUZZI,,38.170558329999999,13.32719333,1,,,,Europe/Rome,1
1717,1717,RESURREZIONE - FLORIO,,38.168869999999998,13.322568329999999,1,,,,Europe/Rome,1
1718,1718,RESURREZIONE - FLORIO,,38.168595000000003,13.32206833,1,,,,Europe/Rome,1
1719,1719,RESURREZIONE - PIAZZA MARIA CONSOLATRICE,,38.169978329999999,13.32485833,1,,,,Europe/Rome,1
172,172,BASILE - BRASA,,38.095644979999982,13.342096210000001,1,,,,Europe/Rome,1
1720,1720,RESURREZIONE - PIAZZA MARIA CONSOLATRICE,,38.169955000000002,13.32446833,1,,,,Europe/Rome,1
1721,1721,RESURREZIONE - VILLA ADRIANA,,38.164687424999997,13.31932655,1,,,,Europe/Rome,1
1722,1722,RESURREZIONE - VILLA ADRIANA,,38.164879999999997,13.319511670000001,1,,,,Europe/Rome,1
1723,1723,RESUTTANA,,38.151417120909151,13.337702124545419,1,,,,Europe/Rome,1
173,173,BASILE - FACOLTA' DI ECONOMIA E COMMERCIO,,38.104246670000016,13.350029999999991,1,,,,Europe/Rome,1
1733,1733,ROCCAZZO - AMAT,,38.122332860000007,13.308573959999999,1,,,,Europe/Rome,1
1734,1734,ROCCAZZO - AMAT,,38.122364240000003,13.308751089999999,1,,,,Europe/Rome,1
1735,1735,ROCCAZZO - CASA DEL SOLE,,38.121034617500008,13.306849972500002,1,,,,Europe/Rome,1
1736,1736,ROCCAZZO - CASA DEL SOLE,,38.120612680000001,13.306428620000002,1,,,,Europe/Rome,1
1739,1739,ROCCAZZO - DOGALI,,38.124629919999997,13.311530807500004,1,,,,Europe/Rome,1
174,174,BASILE - FACOLTA' DI INGEGNERIA,,38.103679999999976,13.349673329999995,1,,,,Europe/Rome,1
1740,1740,ROCCAZZO - DOGALI,,38.125124449999994,13.31228971,1,,,,Europe/Rome,1
1743,1743,ROCCAZZO - MASSAUA,,38.123503939999992,13.310094770000005,1,,,,Europe/Rome,1
1744,1744,ROCCAZZO - MASSAUA,,38.123399569999997,13.310123700000002,1,,,,Europe/Rome,1
1745,1745,ROCCELLA - CALABRO',,38.094335190000002,13.34747404,1,,,,Europe/Rome,1
1746,1746,ROCCELLA - CALLEA,,38.094205359999997,13.347356019999999,1,,,,Europe/Rome,1
1747,1747,ROCCELLA - PONTE CORLEONE,,38.09265912,13.34603772,1,,,,Europe/Rome,1
1748,1748,ROCCELLA - PONTE CORLEONE,,38.09257367,13.346135,1,,,,Europe/Rome,1
175,175,BASILE - FACOLTA' DI INGEGNERIA,,38.105451330000037,13.351377989999991,1,,,,Europe/Rome,1
1750,1750,ROCCELLA - RAITI,,38.096096699999997,13.34819555,1,,,,Europe/Rome,1
1751,1751,ROCCELLA - S. R. ARCANGELO,,38.097118330000001,13.34936167,1,,,,Europe/Rome,1
1752,1752,ROCCELLA - S. R. ARCANGELO,,38.097634429999999,13.350095899999999,1,,,,Europe/Rome,1
1754,1754,ROCCELLA - VITALI,,38.098329999999997,13.350621670000001,1,,,,Europe/Rome,1
1755,1755,ROCCELLA - VITALI,,38.09909167,13.350944999999999,1,,,,Europe/Rome,1
1756,1756,ROCCO JEMMA,,38.10362567,13.36516052,1,,,,Europe/Rome,1
1757,1757,ROMA - BANDIERA,,38.118658060000001,13.362540010000002,1,,,,Europe/Rome,1
1759,1759,ROMA - BELMONTE,,38.124968330000073,13.358764999999977,1,,,,Europe/Rome,1
176,176,BASILE - FACOLTA' DI LETTERE,,38.102839460000027,13.348799050000013,1,,,,Europe/Rome,1
1761,1761,ROMA - FIUME,,38.112295576666668,13.365712166666668,1,,,,Europe/Rome,1
1762,1762,ROMA - FS,,38.111962140000017,13.365919590000001,1,,,,Europe/Rome,1
1763,1763,ROMA - LATTARINI,,38.115741730000011,13.363983039999995,1,,,,Europe/Rome,1
1764,1764,ROMA - LATTARINI,,38.115526100000004,13.36418132,1,,,,Europe/Rome,1
1765,1765,ROMA - PALAZZO GANCI,,38.113977519999999,13.364822569999999,1,,,,Europe/Rome,1
1766,1766,ROMA - PALAZZO GANCI,,38.11383,13.365001670000009,1,,,,Europe/Rome,1
1767,1767,ROMA - POSTE,,38.120213249999999,13.361783620000002,1,,,,Europe/Rome,1
1768,1768,ROMA - POSTE,,38.120872277999993,13.361525354000007,1,,,,Europe/Rome,1
1769,1769,ROMA - S. DOMENICO,,38.119204999999987,13.362308330000003,1,,,,Europe/Rome,1
177,177,BASILE - MEDAGLIE D'ORO,,38.096497280000008,13.343712998000001,1,,,,Europe/Rome,1
1770,1770,ROMA - STABILE,,38.123578329999987,13.359746670000021,1,,,,Europe/Rome,1
1771,1771,ROMA - VUCCIRIA,,38.117552320000009,13.363079129999997,1,,,,Europe/Rome,1
1772,1772,ROMA - VUCCIRIA,,38.117028330000018,13.363384999999996,1,,,,Europe/Rome,1
1774,1774,ROTOLI 1,,38.158806669999997,13.371216670000001,1,,,,Europe/Rome,1
1775,1775,ROTOLI 2,,38.162154999999991,13.370575000000001,1,,,,Europe/Rome,1
1776,1776,ROTOLI 3,,38.163890000000002,13.36974333,1,,,,Europe/Rome,1
1777,1777,ROTOLI 3,,38.16338872,13.369870479999999,1,,,,Europe/Rome,1
1778,1778,ROTOLI 2,,38.161611669999999,13.37072167,1,,,,Europe/Rome,1
1779,1779,ROTOLI 1,,38.159098329999999,13.37134833,1,,,,Europe/Rome,1
178,178,BASILE - PARCHEGGIO BASILE,,38.09755667000001,13.345508329999999,1,,,,Europe/Rome,1
1784,1784,RUGGERI - DI BLASI,,38.12436589,13.31831708,1,,,,Europe/Rome,1
1786,1786,RUGGERI - LEONARDO DA VINCI,,38.12592729,13.318263440000001,1,,,,Europe/Rome,1
1787,1787,RUGGIERO SETTIMO - STABILE,,38.12213225714283,13.35722259714286,1,,,,Europe/Rome,1
1788,1788,S. FILIPPO - COSTELLAZIONE,,38.09300743,13.36035669,1,,,,Europe/Rome,1
1789,1789,S. FILIPPO - ORSA MAGGIORE,,38.093023330000008,13.360755000000005,1,,,,Europe/Rome,1
1790,1790,S. FILIPPO - ORTIGIA,,38.091031569999998,13.361901639999999,1,,,,Europe/Rome,1
1791,1791,S. FILIPPO - SIRIO,,38.091414219999997,13.36174188,1,,,,Europe/Rome,1
1792,1792,S. GIOVANNI DI DIO,,38.100193330000003,13.383433330000001,1,,,,Europe/Rome,1
1793,1793,S. GIOVANNI DI DIO,,38.099983700000003,13.383516220000001,1,,,,Europe/Rome,1
1799,1799,S. LORENZO - ANAS,,38.170144010000001,13.30609755,1,,,,Europe/Rome,1
18,18,ACC. A29 VALLE 2,,38.179958759999998,13.29307532,1,,,,Europe/Rome,1
1801,1801,S. LORENZO - CLINICA STAGNO,,38.168516799999999,13.31310893,1,,,,Europe/Rome,1
1802,1802,S. LORENZO - CLINICA STAGNO,,38.169276669999995,13.31049333,1,,,,Europe/Rome,1
1803,1803,S. LORENZO - CLINICA STAGNO,,38.167959690000004,13.313735700000001,1,,,,Europe/Rome,1
1804,1804,S. LORENZO - COMMISSARIATO P.S.,,38.164962549999991,13.318156880000002,1,,,,Europe/Rome,1
181,181,BASILE - RAITI,,38.096723329999989,13.344701669999983,1,,,,Europe/Rome,1
1812,1812,S. LORENZO - LO VALVO,,38.169371400000003,13.310148420000001,1,,,,Europe/Rome,1
1813,1813,S. LORENZO - LO VALVO,,38.169548229999997,13.306546639999999,1,,,,Europe/Rome,1
1815,1815,S. LORENZO - SAVAGNONE,,38.167353329999997,13.314877149999999,1,,,,Europe/Rome,1
1816,1816,S. LORENZO - SAVAGNONE,,38.167183130000005,13.315043019999999,1,,,,Europe/Rome,1
1818,1818,S. LORENZO - STAZIONE FS,,38.164515000000002,13.318786669999998,1,,,,Europe/Rome,1
1819,1819,S. LORENZO - VALLOTTA,,38.169327109999998,13.30830023,1,,,,Europe/Rome,1
182,182,BASILE - RE RUGGERO,,38.107408329999998,13.354390000000002,1,,,,Europe/Rome,1
1824,1824,S. M. DI GESU' - FALSOMIELE,,38.084511669999998,13.37720167,1,,,,Europe/Rome,1
1827,1827,S. M. DI GESU' - GUADAGNA,,38.097708310000002,13.37013468,1,,,,Europe/Rome,1
1829,1829,S. M. DI GESU' - MIRAGLIA,,38.092591589999998,13.37276533,1,,,,Europe/Rome,1
183,183,BASILE - SABATO,,38.098458329999978,13.346444999999999,1,,,,Europe/Rome,1
1830,1830,S. M. DI GESU' - REGIONE SICILIANA,,38.089384780000003,13.37503646,1,,,,Europe/Rome,1
1833,1833,S. M. DI GESU' - TRABIA,,38.086865430000003,13.3761777,1,,,,Europe/Rome,1
1835,1835,S. M. DI GESU' - VERDONE,,38.085718030000002,13.376789240000001,1,,,,Europe/Rome,1
1837,1837,S. M. DI GESU' - VILLA ALHATES,,38.095314639999998,13.37102458,1,,,,Europe/Rome,1
184,184,BASILE - UNIVERSITA' SEGRETERIE,,38.105686669999983,13.351760000000008,1,,,,Europe/Rome,1
1846,1846,S.P. 69 ROCCA - MONREALE,,38.09322667,13.305628329999999,1,,,,Europe/Rome,1
1847,1847,S.P. 69 ROCCA - MONREALE,,38.092955000000003,13.30551333,1,,,,Europe/Rome,1
185,185,BASILE - UNIVERSITA' SEGRETERIE,,38.106528329999975,13.352586669999996,1,,,,Europe/Rome,1
1856,1856,S.S. 113 - BELVEDERE,,38.20104319,13.26754854,1,,,,Europe/Rome,1
186,186,BELGIO,,38.151476670000001,13.33063333,1,,,,Europe/Rome,1
1865,1865,SADAT - AUTONOMIA SICILIANA,,38.145031562499987,13.355253482500002,1,,,,Europe/Rome,1
1866,1866,SADAT - FIERA,,38.146521669999991,13.354093330000003,1,,,,Europe/Rome,1
187,187,BELGIO,,38.15124333,13.33051667,1,,,,Europe/Rome,1
1870,1870,SALGARI - PAPINI,,38.188204040000002,13.29161167,1,,,,Europe/Rome,1
1873,1873,SALINAS - VILLA TRABIA,,38.128687079999999,13.34627107,1,,,,Europe/Rome,1
1874,1874,SALINE,,38.197473240000001,13.319627240000001,1,,,,Europe/Rome,1
1875,1875,SALINE,,38.197459019999997,13.31952484,1,,,,Europe/Rome,1
1876,1876,SALAMONE MARINO,,38.108037529999997,13.360995534999997,1,,,,Europe/Rome,1
188,188,BENEDETTINI,,38.108737359999999,13.35560871,1,,,,Europe/Rome,1
1888,1888,SAMMARTINO - CATANIA,,38.12764584,13.348420859999999,1,,,,Europe/Rome,1
1889,1889,SAMMARTINO - DEL FERVORE,,38.12429667,13.350336670000001,1,,,,Europe/Rome,1
1890,1890,SAMMARTINO - SIRACUSA,,38.125923069999999,13.34941864,1,,,,Europe/Rome,1
1894,1894,SAN CIRO - BAGNASCO,,38.092806889999999,13.38335797,1,,,,Europe/Rome,1
1895,1895,SAN CIRO - CONTE FEDERICO,,38.094791139999998,13.38335395,1,,,,Europe/Rome,1
1896,1896,SAN CIRO - MAREDOLCE,,38.093765240000003,13.38323593,1,,,,Europe/Rome,1
1897,1897,SAN CIRO - REGIONE SICILIANA,,38.091211000000001,13.384286019999999,1,,,,Europe/Rome,1
1898,1898,SAN FRANCESCO DI SALES,,38.085235640000001,13.3447516,1,,,,Europe/Rome,1
19,19,ACC. A29 VALLE 3,,38.181809919999999,13.291876370000001,1,,,,Europe/Rome,1
1903,1903,SANTUARIO DI CRUILLAS,,38.140000000000001,13.32799333,1,,,,Europe/Rome,1
1906,1906,SARULLO - CASA DEL SOLE,,38.12099031000001,13.305663830000004,1,,,,Europe/Rome,1
1907,1907,SARULLO - CASA DEL SOLE,,38.12115047999999,13.305630239999999,1,,,,Europe/Rome,1
1908,1908,SARULLO - PAPALEO,,38.124013550000001,13.302949369999997,1,,,,Europe/Rome,1
1909,1909,SARULLO - PAPALEO,,38.124142229999997,13.30295205,1,,,,Europe/Rome,1
1910,1910,SAURO - GUALTIERO,,38.12342271,13.331856880000002,1,,,,Europe/Rome,1
1911,1911,SAURO - MONTUORO,,38.124637890000002,13.33070094,1,,,,Europe/Rome,1
1912,1912,SAURO - MONTUORO,,38.124646519999999,13.33213851,1,,,,Europe/Rome,1
1913,1913,SAURO - NOCE,,38.122933170000003,13.332214949999999,1,,,,Europe/Rome,1
1914,1914,SAVONAROLA - PERPIGNANO,,38.121241670000003,13.320913750000001,1,,,,Europe/Rome,1
1920,1920,SCIUTI - DELLE MAGNOLIE,,38.14065343,13.338280770000001,1,,,,Europe/Rome,1
1921,1921,SCIUTI - DELLE MAGNOLIE,,38.13995517,13.338617380000001,1,,,,Europe/Rome,1
1922,1922,SCIUTI - GIUSTI,,38.13648062,13.34080741,1,,,,Europe/Rome,1
1923,1923,SCIUTI - GIUSTI,,38.13609177,13.340954999999999,1,,,,Europe/Rome,1
1924,1924,SCIUTI - LAZIO,,38.141565020000002,13.33760099,1,,,,Europe/Rome,1
1925,1925,SCIUTI - NOTARBARTOLO,,38.132836220000002,13.343005500000002,1,,,,Europe/Rome,1
1926,1926,SCIUTI - NOTARBARTOLO,,38.132878269999999,13.343067169999999,1,,,,Europe/Rome,1
1927,1927,SCIUTI - PRINCIPE DI PATERNO',,38.138760079999997,13.33944619,1,,,,Europe/Rome,1
1928,1928,SCIUTI - PRINCIPE DI PATERNO',,38.138292970000002,13.339649870000001,1,,,,Europe/Rome,1
1929,1929,SCIUTI - RAPISARDI,,38.134091380000001,13.342285309999999,1,,,,Europe/Rome,1
193,193,BERNINI 1,,38.136646480000003,13.32237948,1,,,,Europe/Rome,1
1930,1930,SCIUTI - RAPISARDI,,38.134463629999999,13.341981825000001,1,,,,Europe/Rome,1
1932,1932,SERRADIFALCO - AURISPA,,38.125406669999997,13.33857167,1,,,,Europe/Rome,1
1933,1933,SERRADIFALCO - AURISPA,,38.126461669999998,13.338195000000001,1,,,,Europe/Rome,1
1934,1934,SERRADIFALCO - BERNABEI,,38.127521360000003,13.3377175,1,,,,Europe/Rome,1
1937,1937,SERRADIFALCO - CRISPI,,38.124060989999997,13.33963528,1,,,,Europe/Rome,1
1939,1939,SERRADIFALCO - RAZZA,,38.121719880000001,13.34037423,1,,,,Europe/Rome,1
194,194,BERNINI 2,,38.136644750000009,13.322315939999998,1,,,,Europe/Rome,1
1940,1940,SFERRACAVALLO - DELEGAZIONE,,38.193835640000003,13.28247466,1,,,,Europe/Rome,1
1941,1941,SFERRACAVALLO - DELEGAZIONE,,38.19343949999999,13.282741609999993,1,,,,Europe/Rome,1
1942,1942,SFERRACAVALLO - DELL'ARANCIO,,38.195786079999998,13.279927920000004,1,,,,Europe/Rome,1
1943,1943,SFERRACAVALLO - DELL'ARANCIO,,38.196032699999996,13.279264639999999,1,,,,Europe/Rome,1
1944,1944,SFERRACAVALLO - MANDERINO,,38.197165740000003,13.27778385,1,,,,Europe/Rome,1
1945,1945,SFERRACAVALLO - MANDERINO,,38.197232789999994,13.277562259999998,1,,,,Europe/Rome,1
1946,1946,SFERRACAVALLO - NICOLETTI,,38.194418605999999,13.281767314000007,1,,,,Europe/Rome,1
1947,1947,SFERRACAVALLO - PASSAGGIO A LIVELLO,,38.19115618,13.284829950000001,1,,,,Europe/Rome,1
1948,1948,SFERRACAVALLO - PIAZZA TOMMASO NATALE,,38.191534792000013,13.284405209999997,1,,,,Europe/Rome,1
1949,1949,SIMONE GULI' - CALCEDONIO,,38.141482480000001,13.366965649999999,1,,,,Europe/Rome,1
1950,1950,SIMONE GULI' - CALCEDONIO,,38.141363290000001,13.367149380000001,1,,,,Europe/Rome,1
1951,1951,SIMONE GULI' - CANTIERE NAVALE,,38.138731610000001,13.36772472,1,,,,Europe/Rome,1
1952,1952,SIMONE GULI',,38.139692519999997,13.367781040000001,1,,,,Europe/Rome,1
1953,1953,SOLARINO,,38.101082669999997,13.34894077,1,,,,Europe/Rome,1
196,196,BERRETTARO,,38.138098329999998,13.308315,1,,,,Europe/Rome,1
1965,1965,SS. MEDIATRICE - BARBARINO,,38.101004340000003,13.334317070000001,1,,,,Europe/Rome,1
1966,1966,SS. MEDIATRICE - REGIONE SICILIANA,,38.100471779999999,13.332872070000001,1,,,,Europe/Rome,1
1968,1968,STABILE - PIAZZALE UNGHERIA,,38.122090200000002,13.355403989999999,1,,,,Europe/Rome,1
1970,1970,STADIO,,38.153366669999997,13.34013833,1,,,60000, ,1
1971,1971,STAZIONE CENTRALE - ARDIZZONE 1,,38.109963329999999,13.366153329999999,1,,,20000, ,1
1972,1972,STAZIONE CENTRALE - ARDIZZONE 2,,38.109978359999999,13.366171720000001,1,,,20000, ,1
1976,1976,STAZIONE CENTRALE - CUPANI 1,,38.109381689999999,13.36659633,1,,,20000, ,1
1979,1979,STAZIONE CENTRALE - GIULIO CESARE,,38.109873164999996,13.366441835,1,,,20000, ,1
198,198,BESIO - BARISANO DA TRANI,,38.136795319999997,13.312530150000001,1,,,,Europe/Rome,1
1980,1980,STAZIONE CENTRALE - LINCOLN,,38.110642129999988,13.36719624,1,,,20000, ,1
1981,1981,STAZIONE CENTRALE - MAQUEDA,,38.110225000000007,13.365465,1,,,20000, ,1
1982,1982,STAZIONE CENTRALE - MAUROLICO,,38.110106815714282,13.365876668571437,1,,,20000, ,1
1984,1984,STAZIONE CENTRALE - PENSILINA ESTERNA,,38.11030667,13.366861670000002,1,,,20000, ,1
1985,1985,STAZIONE CENTRALE - PENSILINA INTERNA,,38.110249166875079,13.366907706874954,1,,,20000, ,1
1986,1986,STAZIONE CENTRALE - ROMA,,38.110470589999998,13.3659848,1,,,20000, ,1
1988,1988,STESICORO,,38.206064410000003,13.321563899999999,1,,,,Europe/Rome,1
1989,1989,STRASBURGO - ALDISIO,,38.155275360000012,13.32811117,1,,,,Europe/Rome,1
199,199,BESIO 1,,38.137764199999999,13.310539220000001,1,,,,Europe/Rome,1
1990,1990,STRASBURGO - ALDISIO,,38.154520000000019,13.328658329999998,1,,,,Europe/Rome,1
1991,1991,STRASBURGO - BELGIO,,38.152453329999986,13.330858330000007,1,,,,Europe/Rome,1
1992,1992,STRASBURGO - BELGIO,,38.152326669999987,13.330761669999998,1,,,,Europe/Rome,1
1993,1993,STRASBURGO - BRIUCCIA,,38.151285489999999,13.331711899999995,1,,,,Europe/Rome,1
1994,1994,STRASBURGO - BRIUCCIA,,38.150588329999977,13.332044999999995,1,,,,Europe/Rome,1
1995,1995,STRASBURGO - DANIMARCA,,38.153993000000007,13.329339620000002,1,,,,Europe/Rome,1
1996,1996,STRASBURGO - DANIMARCA,,38.153448329999982,13.329690000000005,1,,,,Europe/Rome,1
1997,1997,STRASBURGO - DE GASPERI,,38.149561510000005,13.332727250000003,1,,,,Europe/Rome,1
1998,1998,STRASBURGO - DE GASPERI,,38.149590000000003,13.332646670000001,1,,,,Europe/Rome,1
1999,1999,STRASBURGO - FRANCIA,,38.156308330000002,13.32714833,1,,,,Europe/Rome,1
2,2,A. AMEDEO - LASCARIS,,38.117643059999992,13.350877760000001,1,,,,Europe/Rome,1
20,20,ACC. A29 VALLE 4,,38.18349448,13.290798130000001,1,,,,Europe/Rome,1
2000,2000,STRASBURGO - INGEGNEROS,,38.157848329999993,13.325598329999998,1,,,,Europe/Rome,1
20000,,STAZIONE CENTRALE,,38.110119691758932,13.366365530044638,1,,1,,Europe/Rome,1
2001,2001,STRASBURGO - INGEGNEROS,,38.157590000000013,13.325704999999999,1,,,,Europe/Rome,1
2002,2002,STRASBURGO - MALTESE,,38.16120999999999,13.322536670000003,1,,,,Europe/Rome,1
2003,2003,STRASBURGO - MALTESE,,38.162083329999987,13.321670000000005,1,,,,Europe/Rome,1
2004,2004,STRASBURGO - NUOVA,,38.160780000000003,13.322753330000005,1,,,,Europe/Rome,1
2005,2005,STRASBURGO - PANTELLERIA,,38.158879999999996,13.324591669999997,1,,,,Europe/Rome,1
2006,2006,STRASBURGO - PANTELLERIA,,38.158553330000004,13.324738330000001,1,,,,Europe/Rome,1
2007,2007,STRASBURGO - SVIZZERA,,38.155566669999992,13.327674999999999,1,,,,Europe/Rome,1
2008,2008,STRASBURGO - VILLA ADRIANA,,38.163204999999991,13.320738330000005,1,,,,Europe/Rome,1
2009,2009,TACITO,,38.197530951999994,13.275920961999997,1,,,,Europe/Rome,1
2010,2010,TASCALANZA - AMAP,,38.112072109999993,13.329298330000006,1,,,,Europe/Rome,1
2011,2011,TASCALANZA - BALESTRATE,,38.115990550000021,13.328816150000009,1,,,,Europe/Rome,1
2012,2012,TASCALANZA - PITRE',,38.109237909999997,13.329616880000001,1,,,,Europe/Rome,1
2013,2013,TASCALANZA - PORTELLO,,38.11327223,13.329165939999998,1,,,,Europe/Rome,1
2017,2017,TERRASANTA - COSTANTINO,,38.130893329999999,13.344120000000002,1,,,,Europe/Rome,1
2018,2018,TERRASANTA - RANDAZZO,,38.129147039999999,13.34527731,1,,,,Europe/Rome,1
2019,2019,TETI,,38.205908330000042,13.324573330000014,1,,,,Europe/Rome,1
2020,2020,TIEPOLO,,38.135211329999997,13.322852280000003,1,,,,Europe/Rome,1
2021,2021,TIEPOLO - UDITORE,,38.134996749999999,13.322354219999999,1,,,,Europe/Rome,1
2022,2022,TINDARI - CEFALU',,38.128444450000003,13.295059650000006,1,,,,Europe/Rome,1
2023,2023,TINDARI - PANTALICA,,38.128308359999998,13.293296099999999,1,,,,Europe/Rome,1
2024,2024,TINDARI - PANTALICA,,38.128363219999997,13.293359130000001,1,,,,Europe/Rome,1
2026,2026,TINDARI 2,,38.128584369999999,13.29535198,1,,,,Europe/Rome,1
2028,2028,TIRO A SEGNO,,38.111643739999998,13.376773910000001,1,,,,Europe/Rome,1
2029,2029,TOLOMEA,,38.206545589999998,13.31714182,1,,,,Europe/Rome,1
2030,2030,TOMMASO NATALE - BESTA,,38.174003540000001,13.302125520000001,1,,,,Europe/Rome,1
2031,2031,TOMMASO NATALE - BESTA,,38.17441367,13.30146557,1,,,,Europe/Rome,1
2032,2032,TOMMASO NATALE - BETTI,,38.177845980000001,13.29717247,1,,,,Europe/Rome,1
2033,2033,TOMMASO NATALE - BETTI,,38.177913330000003,13.296953329999999,1,,,,Europe/Rome,1
2034,2034,TOMMASO NATALE - COSTANTINO,,38.175488540000003,13.299974799999999,1,,,,Europe/Rome,1
2035,2035,TOMMASO NATALE - COSTANTINO,,38.17577,13.299423329999998,1,,,,Europe/Rome,1
2036,2036,TOMMASO NATALE - CROCETTA,,38.183131670000002,13.29303333,1,,,,Europe/Rome,1
2037,2037,TOMMASO NATALE - CROCETTA,,38.182717789999998,13.293180129999998,1,,,,Europe/Rome,1
2038,2038,TOMMASO NATALE - MINUTILLA,,38.172294029999996,13.303909599999999,1,,,,Europe/Rome,1
2039,2039,TOMMASO NATALE - MINUTILLA,,38.172688090000001,13.3035882,1,,,,Europe/Rome,1
2040,2040,TOMMASO NATALE - PASSAGGIO A LIVELLO,,38.184668549999998,13.291311260000001,1,,,,Europe/Rome,1
2041,2041,TOMMASO NATALE - PASSAGGIO A LIVELLO,,38.184879983333332,13.291020596666668,1,,,,Europe/Rome,1
2042,2042,TOMMASO NATALE - SOCRATE,,38.187287449999992,13.28939029,1,,,,Europe/Rome,1
2043,2043,TOMMASO NATALE - SOCRATE,,38.186603130000002,13.289838470000001,1,,,,Europe/Rome,1
2044,2044,TOMMASO NATALE,,38.179716040000002,13.29543382,1,,,,Europe/Rome,1
2045,2045,TOMMASO NATALE,,38.17964245000001,13.295383259999999,1,,,,Europe/Rome,1
2046,2046,TORRE - LI GRECI,,38.208638329999992,13.328705000000003,1,,,,Europe/Rome,1
2047,2047,TORRE - PIANO GALLO ESTERNA,,38.210383919999998,13.32802802,1,,,,Europe/Rome,1
2048,2048,TORRE - PIANO GALLO INTERNA,,38.21045333,13.327935000000011,1,,,,Europe/Rome,1
2049,2049,TORRE MONDELLO - TETI,,38.206339999999997,13.325295000000004,1,,,,Europe/Rome,1
2051,2051,TORRETTA,,38.197728329999997,13.273020000000001,1,,,,Europe/Rome,1
2052,2052,TORRETTA - CATULLO,,38.197987419999997,13.274739239999995,1,,,,Europe/Rome,1
2053,2053,TORRETTA - COSMA E DAMIANO,,38.198429020000013,13.276156780000004,1,,,,Europe/Rome,1
2054,2054,TRABUCCO - CERVELLO,,38.148588330000003,13.315381670000001,1,,,,Europe/Rome,1
2055,2055,TRABUCCO - GIUFFRE',,38.149531670000002,13.315465,1,,,,Europe/Rome,1
2056,2056,TRABUCCO - OSPEDALE CERVELLO,,38.153853329999997,13.31566333,1,,,,Europe/Rome,1
2057,2057,TRABUCCO - PRESTIGIACOMO,,38.14725833,13.31553167,1,,,,Europe/Rome,1
2059,2059,TRABUCCO - ROENTGEN,,38.151395000000001,13.31549,1,,,,Europe/Rome,1
2060,2060,TRICOMI - PARLAVECCHIO,,38.100991669999999,13.35759,1,,,,Europe/Rome,1
2061,2061,TRICOMI - PARLAVECCHIO,,38.101136670000002,13.357435000000001,1,,,,Europe/Rome,1
2062,2062,TRICOMI - UGHETTI,,38.102401669999999,13.35548833,1,,,,Europe/Rome,1
2063,2063,TRICOMI - UGHETTI,,38.10275833,13.355065,1,,,,Europe/Rome,1
2064,2064,TRINACRIA,,38.150912970000014,13.338350709999993,1,,,,Europe/Rome,1
2065,2065,TRITONE - BARCARELLO,,38.203040000000001,13.279475,1,,,,Europe/Rome,1
2066,2066,TRITONE - BARCARELLO,,38.202896670000001,13.279538329999999,1,,,,Europe/Rome,1
2067,2067,TRITONE - NAIADI,,38.201076669999999,13.280704999999999,1,,,,Europe/Rome,1
2068,2068,TRITONE - NAIADI,,38.201003329999999,13.280665000000001,1,,,,Europe/Rome,1
2069,2069,TRITONE - PARCHEGGIO,,38.199198330000002,13.281193330000001,1,,,,Europe/Rome,1
2070,2070,TROINA,,38.089667859999999,13.359715639999999,1,,,,Europe/Rome,1
2071,2071,TROINA,,38.089698980000001,13.35976904,1,,,,Europe/Rome,1
2072,2072,TUKORY - ARCOLEO,,38.108716299999998,13.358956579999999,1,,,,Europe/Rome,1
2073,2073,TUKORY - BALLARO',,38.109807279999984,13.363299629999995,1,,,,Europe/Rome,1
2074,2074,TUKORY - FILICIUZZA,,38.108273099999998,13.35703343,1,,,,Europe/Rome,1
2075,2075,TUKORY - PORTA S. AGATA,,38.109239969999983,13.36139859,1,,,,Europe/Rome,1
2076,2076,UCCIARDONE,,38.133842430000001,13.35906252,1,,,,Europe/Rome,1
2077,2077,UDITORE - ACI,,38.131215750000003,13.32456663,1,,,,Europe/Rome,1
2078,2078,UDITORE - ACI,,38.131346600000001,13.32437023,1,,,,Europe/Rome,1
2079,2079,UDITORE - CIMABUE,,38.130331769999998,13.325391460000001,1,,,,Europe/Rome,1
2080,2080,UDITORE - CIMABUE,,38.1299992,13.32560728,1,,,,Europe/Rome,1
2081,2081,UDITORE - LEONARDO DA VINCI,,38.129214879999999,13.32646182,1,,,,Europe/Rome,1
2082,2082,UDITORE - LEONARDO DA VINCI,,38.128731420000001,13.326832420000001,1,,,,Europe/Rome,1
2083,2083,UDITORE - PIAZZA ALFONSO DE' LIGUORI,,38.13331135,13.322480560000001,1,,,,Europe/Rome,1
2084,2084,UDITORE - SERIO,,38.132192590000002,13.323634569999999,1,,,,Europe/Rome,1
2085,2085,UDITORE - SERIO,,38.132228019999999,13.32349973,1,,,,Europe/Rome,1
2086,2086,UDITORE - TIEPOLO,,38.133679979999997,13.322212990000001,1,,,,Europe/Rome,1
2092,2092,USIGNOLO,,38.088932679999999,13.353149350000001,1,,,,Europe/Rome,1
21,21,ACC. MONTE A19 - BRASCA,,38.09042067,13.381939920000001,1,,,,Europe/Rome,1
2101,2101,VENERE - CASTELFORTE,,38.18910107,13.324833510000001,1,,,,Europe/Rome,1
2102,2102,VENERE - CASTELFORTE,,38.189199089999995,13.324778530000001,1,,,,Europe/Rome,1
2103,2103,VENERE - MARGHERITA DI SAVOIA,,38.19013404999999,13.33151221,1,,,,Europe/Rome,1
2104,2104,VENERE - MARGHERITA DI SAVOIA,,38.190084509999998,13.33197221,1,,,,Europe/Rome,1
2105,2105,VENERE - MARINAI ALLIATA,,38.189504769999999,13.32774371,1,,,,Europe/Rome,1
2106,2106,VENERE - MARINAI ALLIATA,,38.189570000000003,13.327450000000001,1,,,,Europe/Rome,1
2107,2107,VENERE,,38.189753529999997,13.329476420000001,1,,,,Europe/Rome,1
2108,2108,VENERE,,38.189859990000002,13.329457639999999,1,,,,Europe/Rome,1
211,211,BIVIO PIANA,,38.062961719999997,13.32257912,1,,,,Europe/Rome,1
2110,2110,VENEZIANO - FINOCCHIARO APRILE,,38.118544999999997,13.346019999999999,1,,,,Europe/Rome,1
2111,2111,VENEZIANO - VILLA FLORIO,,38.121120910000002,13.345076000000001,1,,,,Europe/Rome,1
2113,2113,VERGINE MARIA,,38.164607650000001,13.36933672,1,,,,Europe/Rome,1
2114,2114,VILLA ADRIANA,,38.163443329999993,13.32011333,1,,,,Europe/Rome,1
2115,2115,VILLA SOFIA - CROCE ROSSA,,38.154301670000059,13.337716669999987,1,,,,Europe/Rome,1
2116,2116,VILLABIANCA - ARIMONDI,,38.136303409999996,13.35116878,1,,,,Europe/Rome,1
2118,2118,VILLABIANCA - AUTONOMIA SICILIANA,,38.139403510000001,13.349145050000001,1,,,,Europe/Rome,1
2120,2120,VILLABIANCA - GENERALE STREVA,,38.138245339999997,13.349879980000001,1,,,,Europe/Rome,1
2122,2122,VILLABIANCA - LAURANA,,38.135057629999999,13.35197747,1,,,,Europe/Rome,1
2125,2125,VILLACIAMBRA 1,,38.061501399999997,13.32125276,1,,,,Europe/Rome,1
2126,2126,VILLACIAMBRA 2,,38.06054262,13.319579060000001,1,,,,Europe/Rome,1
2127,2127,VILLACIAMBRA 2,,38.060447580000002,13.31952542,1,,,,Europe/Rome,1
2128,2128,VILLACIAMBRA 1,,38.061458330000001,13.321298329999999,1,,,,Europe/Rome,1
2129,2129,VILLAGRAZIA - AGNETTA,,38.079575419999998,13.334292319999999,1,,,,Europe/Rome,1
213,213,BIXIO - AURISPA,,38.126624339999999,13.3422325,1,,,,Europe/Rome,1
2130,2130,VILLAGRAZIA - AGNETTA,,38.079446670000003,13.33432333,1,,,,Europe/Rome,1
2131,2131,VILLAGRAZIA - BARONE SCALA,,38.086151870000002,13.34814995,1,,,,Europe/Rome,1
2133,2133,VILLAGRAZIA - BELL'ALBA,,38.074552429999997,13.33046749,1,,,,Europe/Rome,1
2134,2134,VILLAGRAZIA - BELL'ALBA,,38.074530000000003,13.330526669999999,1,,,,Europe/Rome,1
2136,2136,VILLAGRAZIA - CATENA,,38.0731483,13.32900167,1,,,,Europe/Rome,1
2138,2138,VILLAGRAZIA - CILIO,,38.083281669999998,13.336553329999999,1,,,,Europe/Rome,1
2139,2139,VILLAGRAZIA - DELLA VISITAZIONE,,38.08692559,13.34360897,1,,,,Europe/Rome,1
214,214,BLANDINO,,38.057895039999998,13.315231154999999,1,,,,Europe/Rome,1
2140,2140,VILLAGRAZIA - DELLA VISITAZIONE,,38.086888330000001,13.34355167,1,,,,Europe/Rome,1
2141,2141,VILLAGRAZIA - DELL'USIGNOLO,,38.089586670000003,13.352715,1,,,,Europe/Rome,1
2142,2142,VILLAGRAZIA - DELL'USIGNOLO,,38.089723800000002,13.35308388,1,,,,Europe/Rome,1
2143,2143,VILLAGRAZIA - ETNA,,38.086645869999998,13.33892047,1,,,,Europe/Rome,1
2144,2144,VILLAGRAZIA - ETNA,,38.086532929999997,13.33886817,1,,,,Europe/Rome,1
2145,2145,VILLAGRAZIA - FOLAGA,,38.091123330000002,13.35527167,1,,,,Europe/Rome,1
2147,2147,VILLAGRAZIA - GIRGENTI,,38.087022699999999,13.342222270000001,1,,,,Europe/Rome,1
2148,2148,VILLAGRAZIA - GIRGENTI,,38.086989979999998,13.342114990000001,1,,,,Europe/Rome,1
215,215,BLANDINO,,38.057949200000003,13.315270099999999,1,,,,Europe/Rome,1
2151,2151,VILLAGRAZIA - ERACLEA MINOA,,38.092043330000003,13.3576,1,,,,Europe/Rome,1
2152,2152,VILLAGRAZIA - MARCHESE,,38.08463184,13.337218610000001,1,,,,Europe/Rome,1
2154,2154,VILLAGRAZIA - OS1,,38.097046570000003,13.36666256,1,,,,Europe/Rome,1
2155,2155,VILLAGRAZIA - OSPEDALE GUADAGNA,,38.095966879999999,13.36503982,1,,,,Europe/Rome,1
2157,2157,VILLAGRAZIA - PONTE ROTTO,,38.091821670000002,13.356764999999999,1,,,,Europe/Rome,1
2158,2158,VILLAGRAZIA - S. FILIPPO,,38.093196669999998,13.35941,1,,,,Europe/Rome,1
2159,2159,VILLAGRAZIA - SAN FRANCESCO DI SALES,,38.086676480000001,13.34543422,1,,,,Europe/Rome,1
2160,2160,VILLAGRAZIA - VILLA FERNANDEZ,,38.076569999999997,13.332136670000001,1,,,,Europe/Rome,1
2161,2161,VILLAGRAZIA - VILLA FERNANDEZ,,38.076403329999998,13.332188329999999,1,,,,Europe/Rome,1
2162,2162,VILLAGRAZIA - ZUPPETTA,,38.07820306,13.3333844,1,,,,Europe/Rome,1
2163,2163,VILLAGRAZIA - ZUPPETTA,,38.078118330000002,13.333391669999999,1,,,,Europe/Rome,1
2164,2164,VILLAGRAZIA 1,,38.092876670000003,13.35876667,1,,,,Europe/Rome,1
2165,2165,VILLAGRAZIA 10,,38.081634999999999,13.33552667,1,,,,Europe/Rome,1
2166,2166,VILLAGRAZIA 2,,38.090933329999999,13.354835,1,,,,Europe/Rome,1
2167,2167,VILLAGRAZIA 3,,38.081755319999999,13.335538209999999,1,,,,Europe/Rome,1
2170,2170,VILLAGRAZIA - CAPRICORNO,,38.094825970000002,13.36246759,1,,,,Europe/Rome,1
2171,2171,VILLAGRAZIA - CAPRICORNO,,38.094707759999999,13.362409919999999,1,,,,Europe/Rome,1
2173,2173,VILLAGRAZIA 9,,38.0755427,13.331608770000001,1,,,,Europe/Rome,1
2174,2174,VITTORIO EMANUELE - AMARI,,38.075758329999999,13.44867,1,,,,Europe/Rome,1
2175,2175,VITTORIO EMANUELE - ARENA,,38.077916969999997,13.44173625,1,,,,Europe/Rome,1
2180,2180,VITTORIO EMANUELE - DE GASPERI,,38.076390000000004,13.44668167,1,,,,Europe/Rome,1
2181,2181,VITTORIO EMANUELE - EUROPA,,38.080370000000002,13.43633833,1,,,,Europe/Rome,1
2182,2182,VITTORIO EMANUELE - FONTANA DEL GARRAFFO,,38.118058769999998,13.36724594,1,,,,Europe/Rome,1
2183,2183,VITTORIO EMANUELE - ISTITUTO NAUTICO,,38.119394509999999,13.370649670000001,1,,,,Europe/Rome,1
2184,2184,VITTORIO EMANUELE - ISTITUTO NAUTICO,,38.119359699999997,13.370414970000001,1,,,,Europe/Rome,1
2186,2186,VITTORIO EMANUELE - PORTA NUOVA,,38.11223227,13.35298732,1,,,,Europe/Rome,1
2188,2188,VITTORIO EMANUELE - QUATTRO CANTI,,38.116224979999998,13.36270094,1,,,,Europe/Rome,1
2189,2189,VITTORIO EMANUELE - S. MARIA DELLA CATENA,,38.118740359999997,13.36904839,1,,,,Europe/Rome,1
2190,2190,VITTORIO EMANUELE - S. MARIA DELLA CATENA,,38.118883850000003,13.369245530000001,1,,,,Europe/Rome,1
2191,2191,VITTORIO EMANUELE - UMBERTO I,,38.079046669999997,13.439045,1,,,,Europe/Rome,1
2192,2192,VITTORIO EMANUELE - VILLA BONANNO,,38.112920240000001,13.354699910000001,1,,,,Europe/Rome,1
2194,2194,VITTORIO EMANUELE - VUCCIRIA,,38.116858049999998,13.364259300000001,1,,,,Europe/Rome,1
2195,2195,VITTORIO EMANUELE - XXIV MAGGIO,,38.076954999999998,13.44472167,1,,,,Europe/Rome,1
2196,2196,VOLTURNO - CAPO,,38.119525000000003,13.353913329999999,1,,,,Europe/Rome,1
22,22,ACC. MONTE A19 - MAREDOLCE,,38.088654570000003,13.38711575,1,,,,Europe/Rome,1
2206,2206,ZAPPALA',,38.138549300000001,13.335479100000001,1,,,,Europe/Rome,1
2207,2207,ZAPPALA',,38.13911667,13.3353,1,,,,Europe/Rome,1
2208,2208,ZONA INDUSTRIALE - CITTA' GIARDINO,,38.166370000000001,13.305001669999999,1,,,,Europe/Rome,1
221,221,BONANNO - FORESTALE,,38.149222209999998,13.360026169999999,1,,,,Europe/Rome,1
2211,2211,ZONA INDUSTRIALE - NENNI,,38.151931740000002,13.32282863,1,,,,Europe/Rome,1
2214,2214,ZUMBO,,38.135616669999997,13.306093329999999,1,,,,Europe/Rome,1
2216,2216,FONTANA DEL DRAGO - PALERMO,,38.085161450000001,13.2946122,1,,,,Europe/Rome,1
2217,2217,ALLORO - ABATELLIS,,38.116495,13.370525000000001,1,,,,Europe/Rome,1
2218,2218,ALLORO - COCCHIERI,,38.115223329999999,13.36739833,1,,,,Europe/Rome,1
2219,2219,GARIBALDI,,38.113616669999999,13.366875,1,,,,Europe/Rome,1
2220,2220,FONDO RAFFO,,38.182945439999997,13.30697099,1,,,,Europe/Rome,1
2221,2221,FONDO RAFFO,,38.182872670000002,13.306958059999999,1,,,,Europe/Rome,1
2222,2222,PIAZZA MARINA,,38.118135000000002,13.36858333,1,,,,Europe/Rome,1
2223,2223,TUKORY - ARCOLEO,,38.108763329999995,13.358526670000002,1,,,,Europe/Rome,1
2224,2224,TUKORY - FILICIUZZA,,38.108335000000004,13.356960000000001,1,,,,Europe/Rome,1
2225,2225,RE RUGGERO,,38.108441670000005,13.354641670000005,1,,,,Europe/Rome,1
2226,2226,CADORNA,,38.110236260000001,13.356036830000001,1,,,,Europe/Rome,1
2228,2228,IMERA - D'OSSUNA,,38.115142890000001,13.349528830000001,1,,,,Europe/Rome,1
2229,2229,BERNINI - MARCHESANO,,38.13443333,13.324206670000001,1,,,,Europe/Rome,1
2230,2230,BERNINI - MINEO,,38.133173329999998,13.325243329999999,1,,,,Europe/Rome,1
2231,2231,BERNINI - CIMABUE,,38.132145909999998,13.32679018,1,,,,Europe/Rome,1
2232,2232,VILLA FILIPPINA,,38.120555779999997,13.352826370000001,1,,,,Europe/Rome,1
2233,2233,PARLAVECCHIO - METRO',,38.102895869999998,13.36217559,1,,,,Europe/Rome,1
2234,2234,CAVOUR - PREFETTURA,,38.122519599999997,13.36273849,1,,,,Europe/Rome,1
2237,2237,FALCANDO,,38.126746220000001,13.336745459999999,1,,,,Europe/Rome,1
224,224,BONANNO - RAMPOLLA,,38.149901110000002,13.362601700000001,1,,,,Europe/Rome,1
2240,2240,D'AOSTA - DEI MILLE,,38.101048910000003,13.383990530000002,1,,,,Europe/Rome,1
2241,2241,ARCHIRAFI - LINCOLN,,38.111534599999999,13.372131789999999,1,,,,Europe/Rome,1
2242,2242,CASALAINA,,38.099820309999998,13.335445139999999,1,,,,Europe/Rome,1
2243,2243,PALMERINO - SCONTRINO,,38.100095199999998,13.337122669999999,1,,,,Europe/Rome,1
2244,2244,REGIONE SICILIANA - ORETO,,38.091341300000003,13.375948370000001,1,,,,Europe/Rome,1
2245,2245,PARATORE - SIDNEY,,38.092365700000002,13.3749184,1,,,,Europe/Rome,1
2246,2246,ACC. MONTE A19 - CIACULLI,,38.087989579999999,13.390101039999999,1,,,,Europe/Rome,1
2247,2247,PARATORE - GRASSO,,38.094578990000002,13.37360144,1,,,,Europe/Rome,1
2248,2248,PARATORE - ORSA MINORE,,38.09642916,13.37191969,1,,,,Europe/Rome,1
2249,2249,DI BLASI - CORRADINI,,38.122913930000003,13.32363591,1,,,,Europe/Rome,1
2250,2250,DI BLASI - REGIONE SICILIANA,,38.122528039999999,13.328053499999999,1,,,,Europe/Rome,1
2251,2251,NOCE - CAMPOREALE,,38.120038110000003,13.33901972,1,,,,Europe/Rome,1
2252,2252,NOCE - CAMPOREALE,,38.120399999999997,13.337862339999999,1,,,,Europe/Rome,1
2255,2255,BORIS GIULIANO,,38.140792660000002,13.341677779999999,1,,,,Europe/Rome,1
2256,2256,TRABUCCO - REGIONE SICILIANA,,38.154921029999997,13.317186530000001,1,,,,Europe/Rome,1
2267,2267,ALBANESE - DELLA PACE,,38.131540690000001,13.35837328,1,,,,Europe/Rome,1
2269,2269,LUSSORIO CAU - BASILE,,38.094698399999999,13.34166355,1,,,,Europe/Rome,1
2270,2270,LUSSORIO CAU - ZACCO,,38.093144770000002,13.343943429999999,1,,,,Europe/Rome,1
2271,2271,BASILE - RE RUGGERO,,38.107439579999998,13.35428791,1,,,,Europe/Rome,1
2280,2280,ZUMBO - BERRETTARO,,38.136905609999999,13.306866449999999,1,,,,Europe/Rome,1
2281,2281,REGIONE SICILIANA N.O.MONTE - SOCRATE,,38.185929610000002,13.28775325,1,,,,Europe/Rome,1
2282,2282,CAVOUR - PREFETTURA,,38.122169169999999,13.361585079999999,1,,,,Europe/Rome,1
2283,2283,IMERA - COLONNA ROTTA,,38.112248319999999,13.350562650000001,1,,,,Europe/Rome,1
2284,2284,ANITA GARIBALDI,,38.103130350000001,13.385038550000001,1,,,,Europe/Rome,1
2286,2286,AQUINO - CHIESA,,38.074744680000002,13.303109620000001,1,,,,Europe/Rome,1
2287,2287,ACIREALE - PIAZZA S.CRISTINA,,38.130261350000005,13.299966869999999,1,,,,Europe/Rome,1
2288,2288,LANZA DI SCALEA - BESTA,,38.175570890000003,13.31053683,1,,,,Europe/Rome,1
2289,2289,BONELLO - CATTEDRALE,,38.11458279,13.35495966,1,,,,Europe/Rome,1
2290,2290,SPIRITO SANTO,,38.117340810000002,13.357382660000001,1,,,,Europe/Rome,1
2291,2291,DONIZZETTI,,38.119546730000003,13.357531639999999,1,,,,Europe/Rome,1
2292,2292,DEI PICCIOTTI,,38.103233549999999,13.3853306,1,,,,Europe/Rome,1
2293,2293,DE GASPERI - AUSONIA,,38.150434519999997,13.335678209999999,1,,,,Europe/Rome,1
23,23,ACC. MONTE A19 - GALEANO,,38.087039590000003,13.39603543,1,,,,Europe/Rome,1
232,232,BORREMANS - RUBENS,,38.132894490000005,13.335367200000004,1,,,,Europe/Rome,1
233,233,BORREMANS - RUBENS,,38.132866669999999,13.334913329999999,1,,,,Europe/Rome,1
236,236,BRANCACCIO - S. CIRO,,38.096308329999999,13.382625000000001,1,,,,Europe/Rome,1
237,237,BRANCACCIO - S. CIRO,,38.095878329999998,13.38297333,1,,,,Europe/Rome,1
238,238,BRANCACCIO,,38.09681784,13.382452560000001,1,,,,Europe/Rome,1
239,239,BRASA,,38.107876329999975,13.353855010000006,1,,,,Europe/Rome,1
242,242,BRIGATA VERONA - LIGURIA,,38.143252529999998,13.33853745,1,,,,Europe/Rome,1
243,243,BRIGATA VERONA - SICILIA,,38.144533330000002,13.34050203,1,,,,Europe/Rome,1
244,244,BRIGATA VERONA - SICILIA,,38.144685209999999,13.34064427,1,,,,Europe/Rome,1
248,248,BRUNELLESCHI - BESIO,,38.137323330000001,13.313669470000001,1,,,,Europe/Rome,1
249,249,BRUNELLESCHI - BESIO,,38.137024869999998,13.313558049999999,1,,,,Europe/Rome,1
25,25,ACIREALE - BISACQUINO,,38.131266770000003,13.302102969999998,1,,,,Europe/Rome,1
250,250,BRUNELLESCHI - BUONFORNELLO,,38.138804999999998,13.313955,1,,,,Europe/Rome,1
251,251,BRUNELLESCHI - BUONFORNELLO,,38.13884943,13.313899060000001,1,,,,Europe/Rome,1
252,252,BRUNELLESCHI - VANVITELLI,,38.13990562,13.31418976,1,,,,Europe/Rome,1
259,259,CADUTI SUL LAVORO 1,,38.18889171,13.29434586,1,,,,Europe/Rome,1
26,26,ACIREALE - BISACQUINO,,38.131076669999999,13.30176333,1,,,,Europe/Rome,1
261,261,CALA - MERCATO ITTICO,,38.119647370000003,13.366532969999998,1,,,,Europe/Rome,1
262,262,CALA - MERCATO ITTICO,,38.120033890000002,13.36667866,1,,,,Europe/Rome,1
263,263,CALA - S. MARIA DELLA CATENA,,38.119611859999999,13.36934477,1,,,,Europe/Rome,1
264,264,CALATAFIMI - ALBERGO DELLE POVERE,,38.109313329999999,13.345726670000001,1,,,,Europe/Rome,1
265,265,CALATAFIMI - ALBERGO DELLE POVERE,,38.109135000000002,13.345211669999999,1,,,,Europe/Rome,1
266,266,CALATAFIMI - ARCOLEO,,38.104443330000002,13.33358833,1,,,,Europe/Rome,1
267,267,CALATAFIMI - CAPPUCCINI,,38.110831670000003,13.34939,1,,,,Europe/Rome,1
268,268,CALATAFIMI - CASERMA SCIANNA,,38.096190890000003,13.313492730000004,1,,,,Europe/Rome,1
269,269,CALATAFIMI - CASERMA SCIANNA,,38.096226520000009,13.313282579999996,1,,,,Europe/Rome,1
27,27,ACIREALE - PIAZZA S. CRISTINA,,38.13023656,13.29970198,1,,,,Europe/Rome,1
270,270,CALATAFIMI - CASERMA TUKORY,,38.108179679999999,13.343008550000004,1,,,,Europe/Rome,1
271,271,CALATAFIMI - CASERMA TUKORY,,38.108486669999998,13.34362,1,,,,Europe/Rome,1
272,272,CALATAFIMI - CHINNICI,,38.099359909999997,13.321004700000001,1,,,,Europe/Rome,1
273,273,CALATAFIMI - DE FILIPPO,,38.102018129999998,13.32783379,1,,,,Europe/Rome,1
274,274,CALATAFIMI - DE FILIPPO,,38.1021091,13.327793369999998,1,,,,Europe/Rome,1
275,275,CALATAFIMI - DRAGO,,38.103610830000001,13.33177064,1,,,,Europe/Rome,1
276,276,CALATAFIMI - FONTANA DEL PESCATORE,,38.092356670000001,13.305738330000001,1,,,,Europe/Rome,1
277,277,CALATAFIMI - FONTANA DEL PESCATORE,,38.092446670000001,13.30578167,1,,,,Europe/Rome,1
278,278,CALATAFIMI - INDIPENDENZA,,38.110320250000001,13.348192870000002,1,,,,Europe/Rome,1
279,279,CALATAFIMI - LENIN MANCUSO,,38.099499889999997,13.321603269999999,1,,,,Europe/Rome,1
28,28,AI VILLINI A S. ISIDORO - DE FRANCISCO,,38.121944569999997,13.29745958,1,,,,Europe/Rome,1
280,280,CALATAFIMI - MARIA ADELAIDE,,38.110172579999997,13.347631440000001,1,,,,Europe/Rome,1
281,281,CALATAFIMI - MARINUZZI,,38.10510833,13.335288329999999,1,,,,Europe/Rome,1
282,282,CALATAFIMI - MARINUZZI,,38.105233939999998,13.335546259999999,1,,,,Europe/Rome,1
283,283,CALATAFIMI - OSPEDALE INGRASSIA,,38.094934809999991,13.31040138,1,,,,Europe/Rome,1
284,284,CALATAFIMI - OSPEDALE INGRASSIA,,38.095373729999999,13.311190460000002,1,,,,Europe/Rome,1
285,285,CALATAFIMI - OSPEDALE MILITARE,,38.104086469999999,13.332957359999998,1,,,,Europe/Rome,1
286,286,CALATAFIMI - OSPEDALE MILITARE,,38.10376333,13.331901670000001,1,,,,Europe/Rome,1
287,287,CALATAFIMI - PARUTA,,38.098251670000003,13.318431669999999,1,,,,Europe/Rome,1
288,288,CALATAFIMI - PARUTA,,38.097602770000002,13.316662159999996,1,,,,Europe/Rome,1
289,289,CALATAFIMI - PAULSEN,,38.100607349999997,13.324091920000001,1,,,,Europe/Rome,1
29,29,AI VILLINI A S. ISIDORO - FALCONARA,,38.120167680000002,13.298649709999999,1,,,,Europe/Rome,1
290,290,CALATAFIMI - PIETRATAGLIATA,,38.100256629999997,13.323465110000001,1,,,,Europe/Rome,1
291,291,CALATAFIMI - PIETRATAGLIATA,,38.100166209999998,13.322994899999999,1,,,,Europe/Rome,1
292,292,CALATAFIMI - PINDEMONTE,,38.107483780000003,13.341259359999999,1,,,,Europe/Rome,1
293,293,CALATAFIMI - PINDEMONTE,,38.107759999999999,13.34185167,1,,,,Europe/Rome,1
294,294,CALATAFIMI - PORTA NUOVA,,38.111615000000015,13.351499999999994,1,,,,Europe/Rome,1
295,295,CALATAFIMI - RAGUSA MOLETI,,38.106648010000008,13.339177969999998,1,,,,Europe/Rome,1
296,296,CALATAFIMI - RAGUSA MOLETI,,38.10710667,13.340173330000001,1,,,,Europe/Rome,1
297,297,CALATAFIMI - REGIONE SICILIANA,,38.102663150000005,13.329145199999999,1,,,,Europe/Rome,1
298,298,CALATAFIMI - RISERVA REALE,,38.098819560000003,13.31963141,1,,,,Europe/Rome,1
299,299,CALATAFIMI - ROCCA,,38.094481910000006,13.309291509999998,1,,,,Europe/Rome,1
3,3,A. AMEDEO - MERCATO DELLE PULCI,,38.115997069999999,13.35099846,1,,,,Europe/Rome,1
30,30,AI VILLINI A S. ISIDORO - S. ISIDORO,,38.124427339999997,13.29976628,1,,,,Europe/Rome,1
300,300,CALATAFIMI - ROCCA,,38.094594819999998,13.309271340000002,1,,,,Europe/Rome,1
30000,,PARCHEGGIO BASILE,,38.097818267857157,13.345395907857156,1,,1,,Europe/Rome,1
301,301,CALATAFIMI - SCUOLA FELTRI,,38.097197970000003,13.315911920000001,1,,,,Europe/Rome,1
302,302,CALATAFIMI - SCUOLA FELTRI,,38.096984300000003,13.315144030000001,1,,,,Europe/Rome,1
303,303,CALATAFIMI - TRASSELLI,,38.10665667,13.33908667,1,,,,Europe/Rome,1
304,304,CALATAFIMI - VILLA DELLE ROSE,,38.101273859999999,13.326011169999999,1,,,,Europe/Rome,1
305,305,CALATAFIMI - VILLA DELLE ROSE,,38.101204680000002,13.32556445,1,,,,Europe/Rome,1
306,306,CALATAFIMI - ZANCLA,,38.106202690000003,13.33808363,1,,,,Europe/Rome,1
307,307,CALATAFIMI - ZANCLA,,38.105817854999998,13.337086194999999,1,,,,Europe/Rome,1
309,309,CALATAFIMI,,38.098908870000002,13.32016331,1,,,,Europe/Rome,1
31,31,AIRONE - FOLAGA,,38.089391319999997,13.35676119,1,,,,Europe/Rome,1
311,311,CAMPANIA - BRIGATA VERONA,,38.144643119999998,13.33935638,1,,,,Europe/Rome,1
312,312,CAMPANIA - PUGLIA,,38.144943310000002,13.338788640000001,1,,,,Europe/Rome,1
313,313,CAMPOLO - PACINOTTI,,38.128618330000002,13.336584999999999,1,,,,Europe/Rome,1
314,314,CAMPOLO - SERRADIFALCO,,38.129062650000002,13.33734065,1,,,,Europe/Rome,1
315,315,CAMPOREALE - GILI,,38.119647729999997,13.340443969999999,1,,,,Europe/Rome,1
316,316,CANTIERI - BARCA,,38.137213729999999,13.3638221,1,,,,Europe/Rome,1
317,317,CANTIERI - GIACHERY,,38.136166279999998,13.35933477,1,,,,Europe/Rome,1
318,318,CANTIERI - GIACHERY,,38.136147289999997,13.3595936,1,,,,Europe/Rome,1
319,319,CANTIERI - JUVARA,,38.137093479999997,13.362963799999999,1,,,,Europe/Rome,1
32,32,AIRONE - FOLAGA,,38.089285220000001,13.35640019,1,,,,Europe/Rome,1
320,320,CANTIERI - MARVUGLIA,,38.13654391,13.36081132,1,,,,Europe/Rome,1
321,321,CANTIERI - MARVUGLIA,,38.136618810000002,13.36152077,1,,,,Europe/Rome,1
322,322,CANTIERI - ORTOLANI,,38.137796100000003,13.366191300000001,1,,,,Europe/Rome,1
323,323,CANTIERI - ORTOLANI,,38.137779639999998,13.36581964,1,,,,Europe/Rome,1
328,328,CAPPUCCINI - QUARTO DEI MILLE,,38.110691680000002,13.34247038,1,,,,Europe/Rome,1
329,329,CAPPUCCINI - QUARTO DEI MILLE,,38.110726669999998,13.34192,1,,,,Europe/Rome,1
33,33,AIRONE - S. FILIPPO,,38.091744329999997,13.36002747,1,,,,Europe/Rome,1
330,330,CAPPUCCINI,,38.110966670000003,13.34688167,1,,,,Europe/Rome,1
332,332,CAPPUCCINI,,38.11088333,13.345689999999999,1,,,,Europe/Rome,1
333,333,CARBONE - TUBEROSA,,38.19793902,13.316239120000001,1,,,,Europe/Rome,1
337,337,CARRECA - CELONA,,38.134256669999999,13.306001670000001,1,,,,Europe/Rome,1
339,339,CASSARA',,38.151903958749998,13.340105627499987,1,,,60000, ,1
34,34,AIRONE - S. FILIPPO,,38.091833739999998,13.36019978,1,,,,Europe/Rome,1
340,340,CASTELFORTE - BELLINZONA,,38.17783833,13.32547224,1,,,,Europe/Rome,1
342,342,CASTELFORTE - CHIRONE,,38.195129059999999,13.31551149,1,,,,Europe/Rome,1
343,343,CASTELFORTE - DE FONSECA,,38.180957890000002,13.32512721,1,,,,Europe/Rome,1
345,345,CASTELFORTE - GIARDINO DELLA CONCORDIA,,38.176254999999998,13.32601833,1,,,,Europe/Rome,1
347,347,CASTELFORTE - P.M. 64,,38.185959859999997,13.32358494,1,,,,Europe/Rome,1
349,349,CASTELFORTE - TRAPANI,,38.17456833,13.32646167,1,,,,Europe/Rome,1
35,35,AIRONE - TROINA,,38.090332289999999,13.35860765,1,,,,Europe/Rome,1
351,351,CASTELFORTE - VENERE,,38.18775711,13.32308739,1,,,,Europe/Rome,1
354,354,CASTELFORTE,,38.18451675,13.32416967,1,,,,Europe/Rome,1
355,355,CASTELLANA - BRONTE,,38.12572935666666,13.291059936666668,1,,,,Europe/Rome,1
356,356,CASTELLANA - BRONTE,,38.125502130000001,13.296502680000001,1,,,,Europe/Rome,1
357,357,CASTELLANA - ZAIRE,,38.125764820000001,13.304432630000001,1,,,,Europe/Rome,1
36,36,AIRONE - TROINA,,38.09031805,13.35869372,1,,,,Europe/Rome,1
360,360,CASTELLANA - LERCARA,,38.125849219999999,13.30003088,1,,,,Europe/Rome,1
362,362,CASTELLANA - MODICA,,38.12579753,13.2983923,1,,,,Europe/Rome,1
363,363,CASTELLANA - MONTEVAGO,,38.12546308999999,13.293454349999999,1,,,,Europe/Rome,1
364,364,CASTELLANA - PANTALICA,,38.125837220000001,13.292298929999999,1,,,,Europe/Rome,1
366,366,CASTELLANA - ROCCAZZO,,38.12571629,13.311360779999999,1,,,,Europe/Rome,1
367,367,CASTELLANA - ROGAZIONISTI,,38.125639419999999,13.30097628,1,,,,Europe/Rome,1
368,368,CASTELLANA - S. ISIDORO,,38.125567539999999,13.29897165,1,,,,Europe/Rome,1
37,37,AIRONE - USIGNOLO,,38.088647180000002,13.354970809999999,1,,,,Europe/Rome,1
372,372,CASTELLANA - TEMBIEN,,38.125619229999998,13.30892667,1,,,,Europe/Rome,1
376,376,CASTELLANA - VILLA DELLE GINESTRE,,38.125744779999998,13.296717259999999,1,,,,Europe/Rome,1
38,38,AIRONE - USIGNOLO,,38.088641350000003,13.35497325,1,,,,Europe/Rome,1
385,385,CATALANO - LOI,,38.104138220000003,13.34167615,1,,,,Europe/Rome,1
386,386,CATULLO,,38.197712339999988,13.274646700000002,1,,,,Europe/Rome,1
387,387,CAVARRETTA - CASTELFORTE,,38.196680520000001,13.315380070000002,1,,,,Europe/Rome,1
388,388,CAVARRETTA - SALINE,,38.198230000000002,13.318295000000004,1,,,,Europe/Rome,1
389,389,CAVARRETTA - TUBEROSA,,38.197419340000003,13.31676274,1,,,,Europe/Rome,1
39,39,ALESSI - PUGLISI,,38.141010710000003,13.35206442,1,,,,Europe/Rome,1
390,390,CAVOUR,,38.12148496999999,13.359084309999989,1,,,,Europe/Rome,1
398,398,CENTORBE,,38.133445000000002,13.307914999999999,1,,,,Europe/Rome,1
4,4,A. AMEDEO - TRIBUNALE,,38.117768329999997,13.351156669999998,1,,,,Europe/Rome,1
400,400,CENTURIPE - ACIREALE,,38.131153509999997,13.300931009999999,1,,,,Europe/Rome,1
40000,,EMIRI - NINA SICILIANA,,38.116247223333339,13.331882776666669,1,,1,,Europe/Rome,1
402,402,CENTURIPE - ALIA,,38.132274430000002,13.29573935,1,,,,Europe/Rome,1
404,404,CENTURIPE - AUGUSTA,,38.132255890000003,13.293631379999999,1,,,,Europe/Rome,1
406,406,CENTURIPE - MOZIA,,38.132119660000001,13.297760859999999,1,,,,Europe/Rome,1
41,41,ALESSI - TOSELLI,,38.140234319999998,13.35018878,1,,,,Europe/Rome,1
410,410,CHIAVELLI - AL CASALE,,38.091595220000002,13.368744700000001,1,,,,Europe/Rome,1
411,411,CHIAVELLI - BAGNERA,,38.081980170000001,13.367609379999999,1,,,,Europe/Rome,1
412,412,CHIAVELLI - CADUTI DELL'8 LUGLIO 1960,,38.09654716,13.36884624,1,,,,Europe/Rome,1
413,413,CHIAVELLI - CARDINALE,,38.079981850000003,13.368151190000001,1,,,,Europe/Rome,1
414,414,CHIAVELLI - COLNAGO,,38.085780309999997,13.369220049999999,1,,,,Europe/Rome,1
418,418,CHIAVELLI - PLEIADI,,38.093131980000003,13.368664239999999,1,,,,Europe/Rome,1
420,420,CHIAVELLI - SCIACCA,,38.085289469999999,13.36854413,1,,,,Europe/Rome,1
421,421,CHIAVELLI - SEMILIA,,38.083361969999999,13.368168620000001,1,,,,Europe/Rome,1
423,423,CHIAVELLI - VITALE,,38.087501920000001,13.370176259999999,1,,,,Europe/Rome,1
425,425,CHIRONE - CASTELFORTE,,38.194514589999997,13.3155705,1,,,,Europe/Rome,1
426,426,CHIRONE - PORTA DI MARE,,38.193631330000002,13.31436753,1,,,,Europe/Rome,1
427,427,CIACULLI - BOZZO,,38.078796670000003,13.40122667,1,,,,Europe/Rome,1
428,428,CIACULLI - BOZZO,,38.078748840000003,13.401362300000001,1,,,,Europe/Rome,1
429,429,CIACULLI - CARRUBELLA,,38.08404599,13.395103369999999,1,,,,Europe/Rome,1
430,430,CIACULLI - CARRUBELLA,,38.084185329999997,13.39499474,1,,,,Europe/Rome,1
431,431,CIACULLI - CASSARO BONANNO,,38.079755939999998,13.40002119,1,,,,Europe/Rome,1
432,432,CIACULLI - CASSARO BONANNO,,38.079621670000002,13.40024333,1,,,,Europe/Rome,1
433,433,CIACULLI - CROCE VERDE,,38.070080230000016,13.416680399999997,1,,,,Europe/Rome,1
434,434,CIACULLI - DI STEFANO,,38.077730109999997,13.40304136,1,,,,Europe/Rome,1
435,435,CIACULLI - DI STEFANO,,38.07790747,13.40285093,1,,,,Europe/Rome,1
436,436,CIACULLI - GIARDINO DELLA MEMORIA,,38.087324590000001,13.39019358,1,,,,Europe/Rome,1
437,437,CIACULLI - GIARDINO DELLA MEMORIA,,38.087353090000001,13.390260639999999,1,,,,Europe/Rome,1
438,438,CIACULLI - GIBILROSSA,,38.07692462,13.404542060000001,1,,,,Europe/Rome,1
439,439,CIACULLI - GIBILROSSA,,38.076981629999999,13.404516579999999,1,,,,Europe/Rome,1
440,440,CIACULLI 1,,38.08663954,13.391581629999999,1,,,,Europe/Rome,1
441,441,CIACULLI 1,,38.086569869999998,13.39181632,1,,,,Europe/Rome,1
442,442,CIACULLI 10,,38.072525409999997,13.4135288,1,,,,Europe/Rome,1
443,443,CIACULLI 10,,38.072213959999999,13.413972709999999,1,,,,Europe/Rome,1
444,444,CIACULLI 11,,38.070693640000002,13.41581807,1,,,,Europe/Rome,1
445,445,CIACULLI 11,,38.070705250000003,13.41589183,1,,,,Europe/Rome,1
446,446,CIACULLI 2,,38.08497491,13.39388162,1,,,,Europe/Rome,1
447,447,CIACULLI 2,,38.085170189999999,13.39375019,1,,,,Europe/Rome,1
448,448,CIACULLI 3,,38.08268743,13.39664698,1,,,,Europe/Rome,1
449,449,CIACULLI 3,,38.082852109999997,13.396519570000001,1,,,,Europe/Rome,1
45,45,ALLODOLA 1,,38.087889310000001,13.35459799,1,,,,Europe/Rome,1
450,450,CIACULLI 4,,38.081615980000002,13.3979398,1,,,,Europe/Rome,1
451,451,CIACULLI 4,,38.081526670000002,13.398101670000001,1,,,,Europe/Rome,1
452,452,CIACULLI 5,,38.080522340000002,13.39913204,1,,,,Europe/Rome,1
453,453,CIACULLI 5,,38.080546669999997,13.39916833,1,,,,Europe/Rome,1
454,454,CIACULLI 6,,38.076058940000003,13.40666369,1,,,,Europe/Rome,1
455,455,CIACULLI 6,,38.075924870000001,13.407044559999999,1,,,,Europe/Rome,1
456,456,CIACULLI 7,,38.074833329999997,13.408801670000001,1,,,,Europe/Rome,1
457,457,CIACULLI 7,,38.074793329999999,13.408941670000001,1,,,,Europe/Rome,1
458,458,CIACULLI 8,,38.073924269999999,13.410476450000001,1,,,,Europe/Rome,1
459,459,CIACULLI 8,,38.073871490000002,13.41072857,1,,,,Europe/Rome,1
46,46,ALLODOLA 2,,38.087575889999997,13.35452083,1,,,,Europe/Rome,1
460,460,CIACULLI 9,,38.073352059999998,13.41186851,1,,,,Europe/Rome,1
461,461,CIACULLI 9,,38.073320389999999,13.41205895,1,,,,Europe/Rome,1
462,462,CIRINCIONE - CARELLA,,38.099036560000002,13.38707971,1,,,,Europe/Rome,1
463,463,CIRINCIONE - CAVALLACCI,,38.098247999999998,13.389474269999999,1,,,,Europe/Rome,1
471,471,CONTE FEDERICO - CACCIATORE,,38.090320169999998,13.39357317,1,,,,Europe/Rome,1
472,472,CONTE FEDERICO - CHIAZZESE,,38.093844400000002,13.385747820000001,1,,,,Europe/Rome,1
476,476,CONTE FEDERICO - DI VITA,,38.091935069999998,13.39048058,1,,,,Europe/Rome,1
480,480,CONTE FEDERICO - GALEANO,,38.088496239999998,13.396223190000001,1,,,,Europe/Rome,1
481,481,CONTE FEDERICO - GIAFAR,,38.092976669999999,13.38668833,1,,,,Europe/Rome,1
482,482,CONTE FEDERICO - GIAFAR,,38.093162579999998,13.38672817,1,,,,Europe/Rome,1
484,484,CONTE FEDERICO - GRIGOLI,,38.092543020000001,13.3894667,1,,,,Europe/Rome,1
487,487,CONTE FEDERICO - TORTORICI,,38.094585000000002,13.384581669999999,1,,,,Europe/Rome,1
488,488,CONTE FEDERICO - TORTORICI,,38.094707759999999,13.38448316,1,,,,Europe/Rome,1
49,49,ALOI - DI GREGORIO,,38.079043370000001,13.354512160000001,1,,,,Europe/Rome,1
497,497,CONTE FEDERICO - CHIAZZESE,,38.093936229999997,13.38549972,1,,,,Europe/Rome,1
498,498,CONTESSA GIUDITTA,,38.116533080000004,13.346028329999999,1,,,,Europe/Rome,1
50,50,ALOI - FALSOMIELE,,38.074995110000003,13.35562812,1,,,,Europe/Rome,1
50000,,PIAZZALE JOHN LENNON,,38.131789652500004,13.330937423749999,1,,1,,Europe/Rome,1
505,505,CORPO DI GUARDIA,,38.079509969999997,13.304130880000001,1,,,,Europe/Rome,1
51,51,ALOI - GRAFFEO,,38.081188449999999,13.35385501,1,,,,Europe/Rome,1
516,516,CRISPI - CAPITANERIA,,38.124868069999998,13.363650440000001,1,,,,Europe/Rome,1
518,518,CRISPI - PIAZZA 13 VITTIME,,38.12491344,13.363871720000001,1,,,,Europe/Rome,1
519,519,CRISPI - PORTO,,38.12763846,13.36231068,1,,,,Europe/Rome,1
521,521,CRISPI - SCINA',,38.129161809999999,13.361389340000001,1,,,,Europe/Rome,1
522,522,CRISPI - SCINA',,38.129779999999997,13.360712080000001,1,,,,Europe/Rome,1
523,523,CRISTOFORO COLOMBO - ABATE PALMERIO,,38.189378329999997,13.35429167,1,,,,Europe/Rome,1
524,524,CRISTOFORO COLOMBO - ABATE PALMERIO,,38.189734999999999,13.354654999999999,1,,,,Europe/Rome,1
525,525,CRISTOFORO COLOMBO - BELVEDERE MARE,,38.169240000000002,13.366773329999999,1,,,,Europe/Rome,1
526,526,CRISTOFORO COLOMBO - BELVEDERE,,38.168476669999997,13.366434999999999,1,,,,Europe/Rome,1
527,527,CRISTOFORO COLOMBO - BELVEDERE,,38.168308330000002,13.366460000000002,1,,,,Europe/Rome,1
529,529,CRISTOFORO COLOMBO - CARONIA ROBERTI,,38.19095094,13.344290259999999,1,,,,Europe/Rome,1
53,53,ALOI - VITALE,,38.08274866,13.353364170000001,1,,,,Europe/Rome,1
530,530,CRISTOFORO COLOMBO - CARONIA ROBERTI,,38.191160000000004,13.344096664999999,1,,,,Europe/Rome,1
531,531,CRISTOFORO COLOMBO - DE VEGA,,38.186644999999999,13.36081667,1,,,,Europe/Rome,1
532,532,CRISTOFORO COLOMBO - DE VEGA,,38.186696679999997,13.36086094,1,,,,Europe/Rome,1
533,533,CRISTOFORO COLOMBO - LORENZO MARQUES,,38.188609999999997,13.35134667,1,,,,Europe/Rome,1
534,534,CRISTOFORO COLOMBO - LORENZO MARQUES,,38.188679999999998,13.35099333,1,,,,Europe/Rome,1
535,535,CRISTOFORO COLOMBO - MAGELLANO,,38.189751430000001,13.358921710000001,1,,,,Europe/Rome,1
536,536,CRISTOFORO COLOMBO - MAGELLANO,,38.189793330000001,13.35899667,1,,,,Europe/Rome,1
537,537,CRISTOFORO COLOMBO - MARCANTONIO COLONNA,,38.18262833,13.36467,1,,,,Europe/Rome,1
538,538,CRISTOFORO COLOMBO - MARCANTONIO COLONNA,,38.182666670000003,13.364725,1,,,,Europe/Rome,1
539,539,CRISTOFORO COLOMBO - PIETRO DE GUEVARA,,38.188833330000001,13.34874333,1,,,,Europe/Rome,1
54,54,ALOI 1,,38.076520289999998,13.355212209999999,1,,,,Europe/Rome,1
540,540,CRISTOFORO COLOMBO - PIETRO DE GUEVARA,,38.188933335000002,13.34838667,1,,,,Europe/Rome,1
541,541,CRISTOFORO COLOMBO - PIETRO ROMBULO,,38.19314,13.340960000000001,1,,,,Europe/Rome,1
542,542,CRISTOFORO COLOMBO - PIETRO ROMBULO,,38.193020834999999,13.34129583,1,,,,Europe/Rome,1
543,543,CRISTOFORO COLOMBO - ROOSEVELT,,38.190173049999999,13.34547579,1,,,,Europe/Rome,1
544,544,CRISTOFORO COLOMBO - ROOSEVELT,,38.189952499999997,13.345955835,1,,,,Europe/Rome,1
545,545,CRISTOFORO COLOMBO - VERGINE MARIA,,38.166526679999997,13.36598933,1,,,,Europe/Rome,1
547,547,CRISTOFORO COLOMBO - VERGINE MARIA,,38.166993329999997,13.366205000000003,1,,,,Europe/Rome,1
548,548,CRISTOFORO COLOMBO 1,,38.185033330000003,13.362463330000001,1,,,,Europe/Rome,1
549,549,CRISTOFORO COLOMBO 4,,38.172983330000001,13.36603833,1,,,,Europe/Rome,1
550,550,CRISTOFORO COLOMBO 5,,38.171453329999999,13.366303329999999,1,,,,Europe/Rome,1
551,551,CRISTOFORO COLOMBO 1,,38.184548329999998,13.363063329999999,1,,,,Europe/Rome,1
552,552,CRISTOFORO COLOMBO 2,,38.180470849999999,13.365670144999999,1,,,,Europe/Rome,1
553,553,CRISTOFORO COLOMBO 3,,38.176570210000001,13.36606443,1,,,,Europe/Rome,1
554,554,CRISTOFORO COLOMBO 4,,38.172960349999997,13.36607248,1,,,,Europe/Rome,1
555,555,CRISTOFORO COLOMBO 5,,38.171473329999998,13.366391670000001,1,,,,Europe/Rome,1
557,557,CRISTOFORO COLOMBO 2,,38.180480000000003,13.365603330000001,1,,,,Europe/Rome,1
558,558,CRISTOFORO COLOMBO 3,,38.176406669999999,13.366015000000001,1,,,,Europe/Rome,1
559,559,CROCE ROSSA - DE GASPERI,,38.150618259999995,13.338899019999999,1,,,,Europe/Rome,1
56,56,ALOI 3,,38.084131499999998,13.35293368,1,,,,Europe/Rome,1
560,560,CROCE ROSSA - DE GASPERI,,38.150457224000014,13.338875494000002,1,,,,Europe/Rome,1
561,561,CROCE ROSSA - EMILIA,,38.148099759999994,13.340502979999998,1,,,,Europe/Rome,1
562,562,CROCE ROSSA - EMILIA,,38.148080476000018,13.340441301999997,1,,,,Europe/Rome,1
563,563,CROCE ROSSA - STATUA,,38.14666333000001,13.34149667,1,,,,Europe/Rome,1
564,564,CROCE ROSSA - STATUA,,38.146275555999999,13.341623801999997,1,,,,Europe/Rome,1
565,565,CROCE ROSSA - VALDEMONE,,38.149352690000001,13.33969295,1,,,,Europe/Rome,1
566,566,CROCE ROSSA - VALDEMONE,,38.149349188000016,13.339632933999997,1,,,,Europe/Rome,1
567,567,CROCI,,38.130167870000001,13.352731779999999,1,,,70000, ,1
568,568,CRUILLAS - ODDO,,38.141791670000003,13.325388329999999,1,,,,Europe/Rome,1
569,569,CRUILLAS - ONER,,38.142815679999998,13.32154512,1,,,,Europe/Rome,1
570,570,CRUILLAS 1,,38.14092333,13.326933329999999,1,,,,Europe/Rome,1
571,571,CRUILLAS 2,,38.142357930000003,13.32329124,1,,,,Europe/Rome,1
572,572,CRUILLAS 3,,38.143372589999998,13.31983119,1,,,,Europe/Rome,1
573,573,CRUILLAS 4,,38.144288330000002,13.317861669999999,1,,,,Europe/Rome,1
574,574,CUSMANO - CATANIA,,38.127056119999999,13.346551360000003,1,,,,Europe/Rome,1
575,575,CUSMANO - TURRISI COLONNA,,38.125486299999999,13.347511589999998,1,,,,Europe/Rome,1
58,58,ALTOFONTE - CALVARUSO,,38.065831670000001,13.325275,1,,,,Europe/Rome,1
580,580,DALLA CHIESA,,38.132331636666677,13.353686169999998,1,,,,Europe/Rome,1
582,582,DANTE - PIAZZA VIRGILIO,,38.123241700000001,13.34836574,1,,,,Europe/Rome,1
583,583,DANTE - SAMMARTINO,,38.123823609999995,13.351297529999998,1,,,,Europe/Rome,1
584,584,DANTE - SAMMARTINO,,38.123617670000002,13.35000614,1,,,,Europe/Rome,1
586,586,DANTE - STAZIONE LOLLI,,38.122627340000001,13.345871130000001,1,,,,Europe/Rome,1
59,59,ALTOFONTE - CALVARUSO,,38.065661599999999,13.325327039999999,1,,,,Europe/Rome,1
591,591,DANTE - VILLAFRANCA,,38.124290989999999,13.352863940000002,1,,,,Europe/Rome,1
592,592,DANTE - XX SETTEMBRE,,38.124803719999996,13.354779039999999,1,,,,Europe/Rome,1
6,6,ACC. A29 MONTE - COSTANTINO,,38.174234259999999,13.296314860000001,1,,,,Europe/Rome,1
60,60,ALTOFONTE - CIRAULO 1 MONTE,,38.068796669999998,13.32732333,1,,,,Europe/Rome,1
60000,,STADIO - FANTE,,38.152742986249997,13.340211319166665,1,,1,,Europe/Rome,1
604,604,DE GASPERI - AUSONIA,,38.150190080000009,13.335538210000001,1,,,,Europe/Rome,1
605,605,DE GASPERI - AUSONIA,,38.150310142500004,13.336031012500003,1,,,,Europe/Rome,1
606,606,DE GASPERI - NEBRODI,,38.148421669999998,13.331151670000001,1,,,,Europe/Rome,1
607,607,DE GASPERI - STRASBURGO,,38.149401210000001,13.333598969999999,1,,,,Europe/Rome,1
608,608,DE GASPERI - STRASBURGO,,38.149315960000003,13.333591460000001,1,,,,Europe/Rome,1
61,61,ALTOFONTE - CIRAULO 1 VALLE,,38.068894999999998,13.32728833,1,,,,Europe/Rome,1
613,613,DEGLI EMIRI - NINA SICILIANA,,38.115417800000003,13.33321407,1,,,,Europe/Rome,1
617,617,DEI MILLE - BANDITA,,38.091428110000003,13.41265709,1,,,,Europe/Rome,1
618,618,DEI MILLE - BANDITA,,38.091498999999999,13.41267948,1,,,,Europe/Rome,1
624,624,DEI MILLE - CAVALLOTTI,,38.097129780000003,13.395275570000001,1,,,,Europe/Rome,1
625,625,DEI MILLE - CAVALLOTTI,,38.096852380000001,13.396158809999999,1,,,,Europe/Rome,1
626,626,DEI MILLE - CILUFFO,,38.093733890000003,13.405611589999999,1,,,,Europe/Rome,1
627,627,DEI MILLE - CILUFFO,,38.09359912,13.40623008,1,,,,Europe/Rome,1
629,629,DEI MILLE - CORSELLI,,38.096301449999999,13.398496509999999,1,,,,Europe/Rome,1
63,63,ALTOFONTE - CIRAULO 2 VALLE,,38.067288650000002,13.326379810000001,1,,,,Europe/Rome,1
630,630,DEI MILLE - CORSELLI,,38.096319340000001,13.39868703,1,,,,Europe/Rome,1
631,631,DEI MILLE - D'AOSTA,,38.100275949999997,13.384317080000001,1,,,,Europe/Rome,1
632,632,DEI MILLE - DEL CARMELO,,38.095772889999999,13.400614839999999,1,,,,Europe/Rome,1
633,633,DEI MILLE - D'ORFEO,,38.099248170000003,13.388598229999999,1,,,,Europe/Rome,1
634,634,DEI MILLE - FONDO VITALE,,38.093111229999998,13.40768789,1,,,,Europe/Rome,1
635,635,DEI MILLE - FONDO VITALE,,38.093157230000003,13.40772299,1,,,,Europe/Rome,1
636,636,DEI MILLE - FORNI,,38.095944780000004,13.400268410000001,1,,,,Europe/Rome,1
639,639,DEI MILLE - LAUDICINA,,38.092306450000002,13.41040716,1,,,,Europe/Rome,1
64,64,ALTOFONTE - MOLLO,,38.070928330000001,13.32770667,1,,,,Europe/Rome,1
640,640,DEI MILLE - LAUDICINA,,38.092286450000003,13.41070594,1,,,,Europe/Rome,1
65,65,ALTOFONTE - MOLLO,,38.07105155,13.327676650000001,1,,,,Europe/Rome,1
651,651,DEI MILLE - SCUOLA NATOLI,,38.090800999999999,13.414584400000001,1,,,,Europe/Rome,1
652,652,DEI MILLE - SCUOLA NATOLI,,38.090927999999998,13.4144313,1,,,,Europe/Rome,1
656,656,DEI MILLE - TORRELUNGA,,38.098492669999999,13.39265033,1,,,,Europe/Rome,1
657,657,DEI MILLE - SALEMI,,38.099158410000001,13.39032501,1,,,,Europe/Rome,1
658,658,DEI MILLE - VACCARO,,38.089434599999997,13.418557939999999,1,,,,Europe/Rome,1
659,659,DEI MILLE - VACCARO,,38.08960922,13.41847883,1,,,,Europe/Rome,1
66,66,ALTOFONTE - MONTAGNA,,38.072202339999997,13.32838744,1,,,,Europe/Rome,1
660,660,DEI MILLE - VASSALLO,,38.09833545,13.39292891,1,,,,Europe/Rome,1
661,661,DEI MILLE - XXVII MAGGIO,,38.094612329999997,13.40357326,1,,,,Europe/Rome,1
662,662,DEI MILLE - XXVII MAGGIO,,38.09451645,13.40390891,1,,,,Europe/Rome,1
663,663,DEI MILLE 1,,38.087874999999997,13.42109,1,,,,Europe/Rome,1
664,664,DEI MILLE 2,,38.084589889999997,13.42500094,1,,,,Europe/Rome,1
665,665,DEI MILLE 3,,38.087858670000003,13.4212726,1,,,,Europe/Rome,1
67,67,ALTOFONTE - MONTAGNA,,38.072260409999998,13.32832307,1,,,,Europe/Rome,1
68,68,ALTOFONTE - MUSSO,,38.064789449999999,13.324727559999999,1,,,,Europe/Rome,1
682,682,DEL FANTE - CASE ROCCA,,38.156599880000002,13.337925370000001,1,,,,Europe/Rome,1
683,683,DEL FANTE - CASSARA',,38.152958330000004,13.340390000000003,1,,,60000, ,1
684,684,DEL FANTE - CASTELNUOVO,,38.159234380000001,13.335622280000001,1,,,,Europe/Rome,1
685,685,DEL FANTE - DEGLI ALPINI,,38.054247199999999,13.311343280000001,1,,,,Europe/Rome,1
686,686,DEL FANTE - DEGLI ALPINI,,38.054292289999999,13.31130177,1,,,,Europe/Rome,1
688,688,DEL FANTE - DEI CORAZZIERI,,38.05541333,13.31223,1,,,,Europe/Rome,1
689,689,DEL FANTE - DEL BERSAGLIERE,,38.052062149999998,13.309629259999999,1,,,,Europe/Rome,1
69,69,ALTOFONTE - MUSSO,,38.064671670000003,13.324716670000001,1,,,,Europe/Rome,1
690,690,DEL FANTE - DEL BERSAGLIERE,,38.052075000000002,13.309519999999999,1,,,,Europe/Rome,1
691,691,DEL FANTE - PIANO MAGLIO,,38.050773043333336,13.308854983333331,1,,,,Europe/Rome,1
692,692,DEL FANTE - PIAZZA NISCEMI,,38.161920989999999,13.33371075,1,,,,Europe/Rome,1
693,693,DEL FANTE - PIAZZETTA SALERNO,,38.155026479999997,13.33905727,1,,,,Europe/Rome,1
694,694,DEL FANTE - PIAZZETTA SALERNO,,38.155452529999998,13.33863884,1,,,,Europe/Rome,1
695,695,DEL FANTE - STADIO DELLE PALME,,38.15423872000008,13.339525310000001,1,,,,Europe/Rome,1
696,696,DEL FANTE - TEATRO DELLA VERDURA,,38.159856089999998,13.33531378,1,,,,Europe/Rome,1
697,697,DEL FANTE - TEATRO DELLA VERDURA,,38.160457950000001,13.33478656,1,,,,Europe/Rome,1
698,698,DEL FANTE - VILLA ROSATO,,38.161296540000002,13.334286880000001,1,,,,Europe/Rome,1
699,699,DEL VESPRO - DELLE CLINICHE,,38.105513330000001,13.36262833,1,,,,Europe/Rome,1
7,7,ACC. A29 MONTE - MONTE ROSA,,38.170074900000003,13.300094100000001,1,,,,Europe/Rome,1
70,70,ALTOFONTE - OLIO DI LINO,,38.086899210000006,13.32821846,1,,,,Europe/Rome,1
700,700,DEL VESPRO - DELLE CLINICHE,,38.103683330000003,13.36260833,1,,,,Europe/Rome,1
70000,,CROCI - MORDINI,,38.130056775,13.352247595,1,,1,,Europe/Rome,1
701,701,DELLE ALPI - NEBRODI,,38.144548329999999,13.33235833,1,,,,Europe/Rome,1
702,702,DELLE PALME - PRINCIPESSA GIOVANNA,,38.195622499999999,13.336075000000001,1,,,,Europe/Rome,1
703,703,DELLE PALME - PRINCIPESSA IOLANDA,,38.195419999999999,13.33380167,1,,,,Europe/Rome,1
704,704,DELLE PALME - PRINCIPESSA IOLANDA,,38.195509165000004,13.333539165000001,1,,,,Europe/Rome,1
705,705,DELLE PALME - PRINCIPESSA MARIA,,38.195643330000003,13.33687333,1,,,,Europe/Rome,1
706,706,DI BLASI - PASSO DI RIGANO,,38.125870319999997,13.313554820000004,1,,,,Europe/Rome,1
707,707,DI BLASI - PASSO DI RIGANO,,38.125831289999994,13.313847180000003,1,,,,Europe/Rome,1
708,708,DI BLASI - RINDONE,,38.123073329999997,13.322469999999999,1,,,,Europe/Rome,1
71,71,ALTOFONTE - OLIO DI LINO,,38.086831670000002,13.328248329999999,1,,,,Europe/Rome,1
711,711,DI BLASI - SAVONAROLA,,38.123465959999997,13.31995592,1,,,,Europe/Rome,1
712,712,DI BLASI - SAVONAROLA,,38.123372070000009,13.320118190000001,1,,,,Europe/Rome,1
713,713,DI BLASI - SCUOLA CORRADINI,,38.122925109999997,13.324163179999999,1,,,,Europe/Rome,1
714,714,DI BLASI - TELESINO,,38.122740110000002,13.326736220000001,1,,,,Europe/Rome,1
717,717,DIANA - CAMPO OSTACOLI,,38.153170420000002,13.34867835,1,,,,Europe/Rome,1
718,718,DIANA - CASA NATURA,,38.167646449999999,13.339194060000001,1,,,,Europe/Rome,1
719,719,DIANA - COLONIA COMUNALE,,38.15634257,13.345384599999999,1,,,,Europe/Rome,1
72,72,ALTOFONTE - PIAZZA PAGLIARELLI,,38.09128900000001,13.332536219999998,1,,,,Europe/Rome,1
720,720,DIANA - NISCEMI,,38.169973329999998,13.338785,1,,,,Europe/Rome,1
729,729,DIOMEDE - AIACE,,38.201108230000003,13.317770210000001,1,,,,Europe/Rome,1
73,73,ALTOFONTE - PIAZZA PAGLIARELLI,,38.091164560000003,13.33249122,1,,,,Europe/Rome,1
730,730,DIOMEDE - AIACE,,38.201434999999996,13.317508330000001,1,,,,Europe/Rome,1
731,731,DIOMEDE - MERCURIO,,38.203006469999998,13.31694969,1,,,,Europe/Rome,1
732,732,DIOMEDE - MERCURIO,,38.203069999999997,13.31686167,1,,,,Europe/Rome,1
733,733,DIOMEDE - TOLOMEA,,38.204666570000001,13.316570990000001,1,,,,Europe/Rome,1
736,736,DUCA DEGLI ABRUZZI - AMMIRAGLIO CAGNI,,38.169534400000003,13.3282848,1,,,,Europe/Rome,1
737,737,DUCA DEGLI ABRUZZI - AMMIRAGLIO CAGNI,,38.169635939999999,13.32814501,1,,,,Europe/Rome,1
738,738,DUCA DEGLI ABRUZZI - CITTA' DEI RAGAZZI,,38.167820319999997,13.32903818,1,,,,Europe/Rome,1
739,739,DUCA DEGLI ABRUZZI - PALAZZINA CINESE,,38.166445039999999,13.3301543,1,,,,Europe/Rome,1
74,74,ALTOFONTE - REGIONE SICILIANA,,38.094343110000004,13.335555779999996,1,,,,Europe/Rome,1
740,740,DUCA DEGLI ABRUZZI - PALAZZINA CINESE,,38.165705199999998,13.33058314,1,,,,Europe/Rome,1
741,741,DUCA DEGLI ABRUZZI - PALLAVICINO,,38.171348330000001,13.327595000000001,1,,,,Europe/Rome,1
742,742,DUCA DEGLI ABRUZZI - PALLAVICINO,,38.171698329999998,13.327398329999998,1,,,,Europe/Rome,1
743,743,DUCA DELLA VERDURA - GIACHERY,,38.135148970000003,13.355469060000001,1,,,,Europe/Rome,1
744,744,DUCA DELLA VERDURA - LIBERTA',,38.134240911999996,13.351606189999995,1,,,,Europe/Rome,1
745,745,DUCA DELLA VERDURA - TOSELLI,,38.135024940000001,13.3547093,1,,,,Europe/Rome,1
746,746,DUCA DELLA VERDURA - TOSELLI,,38.134765629999997,13.3539324,1,,,,Europe/Rome,1
75,75,ALTOFONTE - REGIONE SICILIANA,,38.095111670000001,13.33602333,1,,,,Europe/Rome,1
752,752,EMILY BALCH - VILLAGRAZIA,,38.087563330000002,13.34520833,1,,,,Europe/Rome,1
753,753,EMILY BALCH - VILLAGRAZIA,,38.087846669999998,13.345825,1,,,,Europe/Rome,1
754,754,EMILY BALCH 1,,38.088941669999997,13.34872667,1,,,,Europe/Rome,1
756,756,EMILY BALCH 3,,38.088809730000001,13.3510682,1,,,,Europe/Rome,1
76,76,ALTOFONTE - SAMBUCIA,,38.090048899999999,13.33073974,1,,,,Europe/Rome,1
760,760,ERMELLINO - ANTILOPE,,38.084912629999998,13.356510399999999,1,,,,Europe/Rome,1
761,761,ERMELLINO - CAMOSCIO,,38.085039329999979,13.357088669999998,1,,,,Europe/Rome,1
763,763,ERMELLINO - LEVRIERE,,38.087180329999988,13.365340730000009,1,,,,Europe/Rome,1
764,764,ERMELLINO - LONTRA,,38.085656810000003,13.35858777,1,,,,Europe/Rome,1
765,765,ERMELLINO - LONTRA,,38.085702559999987,13.35885425,1,,,,Europe/Rome,1
767,767,ERMELLINO - PAPA GIOVANNI XXIII,,38.086696906666674,13.362627816666668,1,,,,Europe/Rome,1
768,768,ERMELLINO - TROINA,,38.08641154,13.36081401,1,,,,Europe/Rome,1
769,769,ERMELLINO - TROINA,,38.086376780000016,13.36091849,1,,,,Europe/Rome,1
77,77,ALTOFONTE - SAMBUCIA,,38.088245020000002,13.32948178,1,,,,Europe/Rome,1
770,770,ERRANTE - CORAZZA,,38.106974999999998,13.363099999999999,1,,,,Europe/Rome,1
771,771,ERRANTE - PEREZ,,38.10812958999999,13.365713059999997,1,,,,Europe/Rome,1
772,772,EUROPA - DELLA RINASCITA,,38.075620000000001,13.44195333,1,,,,Europe/Rome,1
773,773,EUROPA - PELORITANI,,38.075510000000001,13.444103330000001,1,,,,Europe/Rome,1
774,774,EUROPA - PIAVE,,38.075360000000003,13.448549999999999,1,,,,Europe/Rome,1
775,775,EUROPA - PIEMONTE,,38.08008667,13.436299999999999,1,,,,Europe/Rome,1
776,776,EUROPA - PUGLISI,,38.078479999999999,13.437715000000001,1,,,,Europe/Rome,1
777,777,EUROPA - S. GIUSEPPE,,38.076198329999997,13.439925000000001,1,,,,Europe/Rome,1
778,778,EUROPA - TAORMINA,,38.075408330000002,13.44715667,1,,,,Europe/Rome,1
779,779,FALCONARA - AI VILLINI A S. ISIDORO,,38.118490299999998,13.29761311,1,,,,Europe/Rome,1
78,78,ALTOFONTE - VILLANI,,38.092456470000002,13.333907420000001,1,,,,Europe/Rome,1
780,780,FALCONARA - AI VILLINI A S. ISIDORO,,38.118394449999997,13.297524709999999,1,,,,Europe/Rome,1
781,781,FALCONARA - ANDREA DA BURGIO,,38.117396159999998,13.29406857,1,,,,Europe/Rome,1
782,782,FALCONARA - ANDREA DA BURGIO,,38.117323349999999,13.294025359999999,1,,,,Europe/Rome,1
785,785,FALCONARA - FRANCESCO DA PICCIANO,,38.115455860000004,13.29089158,1,,,,Europe/Rome,1
786,786,FALCONARA - FRANCESCO DA PICCIANO,,38.115533110000001,13.290931949999999,1,,,,Europe/Rome,1
789,789,FALCONARA - PIAZZA BAIDA,,38.114660209999997,13.29462111,1,,,,Europe/Rome,1
79,79,ALTOFONTE - VILLANI,,38.092786830000001,13.334441180000001,1,,,,Europe/Rome,1
790,790,FALCONARA - PIAZZA BAIDA,,38.114696989999999,13.29470849,1,,,,Europe/Rome,1
791,791,FALCONARA - ROCCAZZO,,38.119985489999998,13.30509092,1,,,,Europe/Rome,1
792,792,FALCONARA - S. ISIDORO,,38.119163729999997,13.30033517,1,,,,Europe/Rome,1
793,793,FALCONARA - S. ISIDORO,,38.119004789999998,13.30001399,1,,,,Europe/Rome,1
794,794,FALCONARA 1,,38.11779816,13.295812010000001,1,,,,Europe/Rome,1
795,795,FALCONARA 1,,38.117696129999999,13.295764269999999,1,,,,Europe/Rome,1
796,796,FALCONARA 2,,38.117453140000002,13.291207999999999,1,,,,Europe/Rome,1
797,797,FALCONARA 3,,38.117719030000003,13.289476629999999,1,,,,Europe/Rome,1
798,798,FALCONARA 4,,38.116654410000002,13.28871891,1,,,,Europe/Rome,1
8,8,ACC. A29 MONTE - R.L 23,,38.168166470000003,13.30184899,1,,,,Europe/Rome,1
80000,,STURZO - POLITEAMA,,38.125596316666694,13.357165363333337,1,,1,,Europe/Rome,1
801,801,FALCONARA 4,,38.116662769999998,13.288819350000001,1,,,,Europe/Rome,1
802,802,FALCONARA 3,,38.117490119999999,13.289869639999999,1,,,,Europe/Rome,1
803,803,FALCONARA 2,,38.117384229999999,13.29119805,1,,,,Europe/Rome,1
805,805,FALSOMIELE - BARRESI,,38.080048359999999,13.37283433,1,,,,Europe/Rome,1
807,807,FALSOMIELE - LUCCHICELLI,,38.078992700000001,13.371705110000001,1,,,,Europe/Rome,1
808,808,FALSOMIELE - PECORARO,,38.078349799999998,13.36941317,1,,,,Europe/Rome,1
810,810,FALSOMIELE - VILLA ALBANESE,,38.081172610000003,13.374182129999999,1,,,,Europe/Rome,1
812,812,FALSOMIELE 1,,38.075641670000003,13.349788330000001,1,,,,Europe/Rome,1
816,816,FANTE - C.T.O.,,38.152070129999998,13.34105922,1,,,,Europe/Rome,1
817,817,FANTE - INAIL,,38.150320944999997,13.34225155,1,,,,Europe/Rome,1
818,818,FANTE - INAIL,,38.150816079999998,13.341844139999999,1,,,,Europe/Rome,1
819,819,FANTE - PISCINA COMUNALE,,38.148964464999999,13.342967645000002,1,,,,Europe/Rome,1
820,820,FANTE - PISCINA COMUNALE,,38.148863069999997,13.34293074,1,,,,Europe/Rome,1
824,824,FINOCCHIARO APRILE - AMATO,,38.118098330000002,13.34482833,1,,,,Europe/Rome,1
825,825,FINOCCHIARO APRILE - RE FEDERICO,,38.118549999999999,13.34781167,1,,,,Europe/Rome,1
826,826,FINOCCHIARO APRILE - TRIBUNALE,,38.118824770000003,13.35015759,1,,,,Europe/Rome,1
827,827,FONTANA DEL DRAGO - CANNOLICCHIO,,38.086028329999998,13.29592667,1,,,,Europe/Rome,1
828,828,FONTANA DEL DRAGO 1,,38.087346670000002,13.29758833,1,,,,Europe/Rome,1
829,829,FONTANA DEL DRAGO 2,,38.089068330000003,13.299908329999999,1,,,,Europe/Rome,1
830,830,FONTANA DEL DRAGO 3,,38.091151670000002,13.302443329999999,1,,,,Europe/Rome,1
831,831,FONTANA DEL DRAGO 3,,38.091258330000002,13.30250667,1,,,,Europe/Rome,1
832,832,FONTANA DEL DRAGO 2,,38.089410000000001,13.300248330000001,1,,,,Europe/Rome,1
833,833,FONTANA DEL DRAGO 1,,38.086928329999999,13.297031670000001,1,,,,Europe/Rome,1
835,835,FORO UMBERTO I - LINCOLN,,38.115556019999993,13.376003350000001,1,,,,Europe/Rome,1
836,836,FORO UMBERTO I - PADRE MESSINA,,38.113426670000003,13.37778833,1,,,,Europe/Rome,1
837,837,FORO UMBERTO I - PIAZZA KALSA,,38.1165795,13.374057410000002,1,,,,Europe/Rome,1
838,838,FORO UMBERTO I - PORTA FELICE,,38.117856189999998,13.37272838,1,,,,Europe/Rome,1
839,839,FORO UMBERTO I - PORTA FELICE,,38.11788147,13.37307738,1,,,,Europe/Rome,1
84,84,AMARILLI - PARTANNA MONDELLO,,38.196210000000001,13.306408329999998,1,,,,Europe/Rome,1
840,840,FORO UMBERTO I - VILLA GIULIA,,38.113652783333329,13.377280366666669,1,,,,Europe/Rome,1
841,841,PARCHEGGIO FRANCIA,,38.154796339999997,13.322814360000001,1,,,,Europe/Rome,1
842,842,FRANCIA - NEBRODI,,38.156289460000004,13.32599095,1,,,,Europe/Rome,1
843,843,FRANCIA - NEBRODI,,38.155730910000003,13.324926509999999,1,,,,Europe/Rome,1
844,844,GALATEA - CIANE,,38.20011667,13.32201667,1,,,,Europe/Rome,1
845,845,GALATEA - CIANE,,38.199946670000003,13.32152333,1,,,,Europe/Rome,1
846,846,GALATEA - PARCHEGGIO,,38.20091833,13.323385,1,,,,Europe/Rome,1
847,847,GALATEA - PARCHEGGIO,,38.200858330000003,13.323434999999996,1,,,,Europe/Rome,1
848,848,GALATEA - SALINE,,38.198775000000005,13.319286669999999,1,,,,Europe/Rome,1
85,85,AMMIRAGLIO RIZZO - CALCEDONIO,,38.144264803333336,13.36576341,1,,,,Europe/Rome,1
850,850,GALILEI - GIOTTO,,38.130632379999994,13.334572610000002,1,,,,Europe/Rome,1
851,851,GALILEI - GIOTTO,,38.131406669999997,13.334308330000001,1,,,,Europe/Rome,1
853,853,GALILEI - LEONARDO DA VINCI,,38.130433330000002,13.33492833,1,,,,Europe/Rome,1
856,856,GALLETTI - BONADONNA,,38.087515000000003,13.433053330000003,1,,,,Europe/Rome,1
857,857,GALLETTI - MESSINA MARINE,,38.095804999999999,13.428985000000004,1,,,,Europe/Rome,1
858,858,GALLETTI - MESSINA MARINE,,38.09609167,13.42869333,1,,,,Europe/Rome,1
859,859,GALLETTI - TAGLIAVIA,,38.087988330000016,13.432883330000003,1,,,,Europe/Rome,1
86,86,AMMIRAGLIO RIZZO - CALCEDONIO,,38.144321669999997,13.36566167,1,,,,Europe/Rome,1
860,860,GALLETTI - TAGLIAVIA,,38.088561669999997,13.432815000000002,1,,,,Europe/Rome,1
861,861,GALLETTI - ZITA,,38.091994999999997,13.431311670000003,1,,,,Europe/Rome,1
862,862,GALLETTI - ZITA,,38.092770000000002,13.430803330000002,1,,,,Europe/Rome,1
863,863,GALLETTI 1,,38.09103167,13.432045,1,,,,Europe/Rome,1
864,864,GALLETTI 2,,38.094433330000008,13.429978329999999,1,,,,Europe/Rome,1
865,865,GALLETTI 2,,38.094281669999994,13.430048330000004,1,,,,Europe/Rome,1
867,867,GALLETTI 1,,38.090881670000002,13.432073330000001,1,,,,Europe/Rome,1
868,868,GALLO,,38.208673640000015,13.327360150000002,1,,,,Europe/Rome,1
869,869,GENERALE CASCINO - FIERA DEL MEDITERRANEO,,38.142723920000002,13.35713267,1,,,,Europe/Rome,1
87,87,AMMIRAGLIO RIZZO - DON ORIONE,,38.143654193333333,13.360719236666668,1,,,,Europe/Rome,1
873,873,GIACHERY,,38.135811850000003,13.357945380000002,1,,,,Europe/Rome,1
874,874,GIAFAR - BRASCA,,38.092220050000002,13.386233300000001,1,,,,Europe/Rome,1
875,875,GIAFAR - BRASCA,,38.091686670000001,13.38588,1,,,,Europe/Rome,1
88,88,AMMIRAGLIO RIZZO - DON ORIONE,,38.143668329999997,13.36058667,1,,,,Europe/Rome,1
880,880,GIAFAR - TORRELUNGA,,38.098097670000001,13.391170730000001,1,,,,Europe/Rome,1
886,886,GIOTTO - GALILEI,,38.130834929999999,13.332697750000001,1,,,,Europe/Rome,1
887,887,GIOTTO - REGIONE SICILIANA,,38.131081670000007,13.331719999999999,1,,,,Europe/Rome,1
889,889,GOETHE,,38.120259326666655,13.350646199999998,1,,,,Europe/Rome,1
89,89,AMMIRAGLIO RIZZO - GENERALE CASCINO,,38.143395423333338,13.358784843333332,1,,,,Europe/Rome,1
891,891,GRECA,,38.097286150000002,13.367499410000001,1,,,,Europe/Rome,1
894,894,GUERRAZZI,,38.115920000000003,13.34350167,1,,,,Europe/Rome,1
895,895,GUIDO ROSSA,,38.082688490000002,13.360936049999999,1,,,,Europe/Rome,1
898,898,HOLM - GUALTIERO,,38.125576899999999,13.331999120000001,1,,,,Europe/Rome,1
899,899,HOLM - LEONARDO DA VINCI,,38.128241889999998,13.330786679999999,1,,,,Europe/Rome,1
9,9,ACC. A29 MONTE - SCHELLEY,,38.172142520000001,13.298221910000001,1,,,,Europe/Rome,1
90,90,AMMIRAGLIO RIZZO - GENERALE CASCINO,,38.143506670000001,13.35926167,1,,,,Europe/Rome,1
900,900,HOLM - SCOBAR,,38.126724889999998,13.33141964,1,,,,Europe/Rome,1
901,901,IANDOLINO,,38.196289999999998,13.311819999999999,1,,,,Europe/Rome,1
902,902,IANDOLINO - CATALANO,,38.197212800000003,13.314212660000001,1,,,,Europe/Rome,1
903,903,IANDOLINO - PARTANNA MONDELLO,,38.196306569999997,13.311602369999999,1,,,,Europe/Rome,1
904,904,IMPERATORE FEDERICO - FIERA,,38.14696833,13.35266,1,,,,Europe/Rome,1
905,905,IMPERATORE FEDERICO - FIERA,,38.147084999999997,13.35293667,1,,,,Europe/Rome,1
906,906,IMPERATORE FEDERICO - METRO',,38.14538289,13.347927329999999,1,,,,Europe/Rome,1
907,907,IMPERATORE FEDERICO - METRO',,38.1455664,13.34819287,1,,,,Europe/Rome,1
908,908,IMPERATORE FEDERICO - MINZONI,,38.145840630000002,13.34926039,1,,,,Europe/Rome,1
909,909,IMPERATORE FEDERICO,,38.146330009999993,13.350775839999999,1,,,,Europe/Rome,1
91,91,AMMIRAGLIO RIZZO - JUNG,,38.143917223333332,13.362678969999999,1,,,,Europe/Rome,1
910,910,IMPERATORE FEDERICO,,38.146481420000001,13.35114143,1,,,,Europe/Rome,1
911,911,INDIPENDENZA,,38.111316670000001,13.350620000000015,1,,,,Europe/Rome,1
912,912,INDIPENDENZA - PALAZZO REALE,,38.110788330000084,13.351908329999963,1,,,,Europe/Rome,1
913,913,INDIPENDENZA - PISANI,,38.110231670000026,13.350311669999998,1,,,,Europe/Rome,1
914,914,INDIPENDENZA - PISANI,,38.110637789999998,13.350013380000005,1,,,,Europe/Rome,1
916,916,INGRESSO FAVORITA,,38.173315680000002,13.337184840000001,1,,,,Europe/Rome,1
917,917,ISIDORO CARINI,,38.128295250000001,13.356276519999996,1,,,,Europe/Rome,1
918,918,KING - SCALA VECCHIA,,38.148031670000002,13.356640000000001,1,,,,Europe/Rome,1
92,92,AMMIRAGLIO RIZZO - JUNG,,38.144015000000003,13.36322167,1,,,,Europe/Rome,1
921,921,LA FRANCA - DURANTE,,38.103710579999998,13.363606235000001,1,,,,Europe/Rome,1
924,924,LA MALFA,,38.160733550000003,13.315482810000001,1,,,,Europe/Rome,1
925,925,LA MALFA - ACC. A29 VALLE,,38.166035260000001,13.30752867,1,,,,Europe/Rome,1
926,926,LA MALFA - ACC. A29 VALLE,,38.16626333,13.30688333,1,,,,Europe/Rome,1
927,927,LA MALFA - AST,,38.159378889999999,13.316518309999999,1,,,,Europe/Rome,1
928,928,LA MALFA - AST,,38.159558330000003,13.31626833,1,,,,Europe/Rome,1
929,929,LA MALFA - CNR,,38.165421029999997,13.30886941,1,,,,Europe/Rome,1
93,93,AMMIRAGLIO RIZZO - PIAZZA ACQUASANTA,,38.14434179500001,13.367691524999998,1,,,,Europe/Rome,1
930,930,LA MALFA - CNR,,38.16497167,13.30979833,1,,,,Europe/Rome,1
931,931,LA MALFA - FIGC,,38.164018630000001,13.312011999999999,1,,,,Europe/Rome,1
932,932,LA MALFA - FIGC,,38.164216670000002,13.31145667,1,,,,Europe/Rome,1
933,933,LA MALFA - NUOVA,,38.157203420000002,13.31825072,1,,,,Europe/Rome,1
935,935,LA MALFA - RIPARTIZIONE ANNONA,,38.158585000000002,13.317085000000001,1,,,,Europe/Rome,1
936,936,LA MALFA - TRANCHINA,,38.162858649999997,13.31389375,1,,,,Europe/Rome,1
937,937,LA MALFA - TRANCHINA,,38.16187,13.31462333,1,,,,Europe/Rome,1
938,938,LANZA DI SCALEA - EINAUDI,,38.177010299999999,13.30961385,1,,,,Europe/Rome,1
94,94,AMMIRAGLIO RIZZO - PIAZZA ACQUASANTA,,38.144346669999997,13.367305,1,,,,Europe/Rome,1
940,940,LANZA DI SCALEA - FARAONE,,38.183233190000003,13.304007629999999,1,,,,Europe/Rome,1
941,941,LANZA DI SCALEA - FARAONE,,38.183202010000002,13.303782529999999,1,,,,Europe/Rome,1
943,943,LANZA DI SCALEA - OLIMPO,,38.18794441,13.299908200000001,1,,,,Europe/Rome,1
945,945,LANZA DI SCALEA - SAVAGNONE,,38.167916460000001,13.31625305,1,,,,Europe/Rome,1
946,946,LANZA DI SCALEA - SAVAGNONE,,38.167413330000002,13.316466670000001,1,,,,Europe/Rome,1
948,948,LANZA DI SCALEA - VELODROMO,,38.172880399999997,13.31232052,1,,,,Europe/Rome,1
949,949,LANZA DI SCALEA - VELODROMO,,38.172435440000001,13.31243216,1,,,,Europe/Rome,1
95,95,ANTIGONE - CASTELFORTE,,38.195198329999997,13.31479833,1,,,,Europe/Rome,1
950,950,LANZA DI SCALEA 1,,38.169370000000001,13.315086669999999,1,,,,Europe/Rome,1
951,951,LANZA DI SCALEA 2,,38.185503869999998,13.30215776,1,,,,Europe/Rome,1
952,952,LANZA DI SCALEA 2,,38.18521157,13.30216667,1,,,,Europe/Rome,1
953,953,LANZA DI SCALEA 1,,38.168921670000003,13.315246670000001,1,,,,Europe/Rome,1
958,958,LARGO TRAINA - CATALANO,,38.101695669999998,13.339297910000001,1,,,,Europe/Rome,1
959,959,LASCARIS - IMERA,,38.117143210000002,13.349344889999999,1,,,,Europe/Rome,1
96,96,ANTIGONE - NICOTI,,38.193224999999998,13.311688330000001,1,,,,Europe/Rome,1
960,960,LASCARIS - ZISA,,38.116779970000003,13.347223250000001,1,,,,Europe/Rome,1
961,961,LATINI,,38.122726389999997,13.35055187,1,,,,Europe/Rome,1
967,967,LAZIO - DELLE ALPI,,38.141036130000003,13.33474919,1,,,,Europe/Rome,1
968,968,LAZIO - DELLE ALPI,,38.1414312,13.335778619999999,1,,,,Europe/Rome,1
97,97,ANTIGONE - PORTA DI MARE,,38.194343840000002,13.31336707,1,,,,Europe/Rome,1
970,970,LAZIO - MUNICIPIO,,38.140362629999998,13.33274188,1,,,,Europe/Rome,1
971,971,LAZIO - MUNICIPIO,,38.140553500000003,13.333110360000003,1,,,,Europe/Rome,1
976,976,L'EMIRO - ARISTIPPO,,38.114363330000003,13.337951670000001,1,,,,Europe/Rome,1
977,977,L'EMIRO - CASTELLUCCIO,,38.114326779999999,13.3380045,1,,,,Europe/Rome,1
978,978,L'EMIRO - DI SVEVIA,,38.114623330000001,13.339553329999999,1,,,,Europe/Rome,1
979,979,L'EMIRO - EDRISI,,38.11472457,13.33985925,1,,,,Europe/Rome,1
98,98,ANTILOPE - ERMELLINO,,38.084051109999997,13.356207319999999,1,,,,Europe/Rome,1
980,980,L'EMIRO - GUERRAZZI,,38.11505167,13.341903090000001,1,,,,Europe/Rome,1
981,981,L'EMIRO - GUERRAZZI,,38.115135019999997,13.341955390000001,1,,,,Europe/Rome,1
982,982,L'EMIRO - SCOTO,,38.113618770000002,13.334851560000001,1,,,,Europe/Rome,1
983,983,L'EMIRO - SCOTO,,38.113528330000001,13.33475833,1,,,,Europe/Rome,1
984,984,LEONARDO DA VINCI - CAMILLIANI,,38.127451999999998,13.32438773,1,,,,Europe/Rome,1
985,985,LEONARDO DA VINCI - CARPACCIO,,38.127821230000002,13.325853560000001,1,,,,Europe/Rome,1
987,987,LEONARDO DA VINCI - CASALINI,,38.126859889999999,13.3140631,1,,,,Europe/Rome,1
988,988,LEONARDO DA VINCI - CENTRO BORSELLINO,,38.129784890000003,13.33398674,1,,,,Europe/Rome,1
99,99,ANTILOPE - GUIDO ROSSA,,38.082333329999997,13.357091670000001,1,,,,Europe/Rome,1
990,990,LEONARDO DA VINCI - GALILEI,,38.130430500000003,13.336403410000001,1,,,,Europe/Rome,1
991,991,LEONARDO DA VINCI - GIAQUINTO,,38.127140490000002,13.3239103,1,,,,Europe/Rome,1
994,994,LEONARDO DA VINCI - PIAZZA EINSTEIN,,38.129174079999999,13.331535199999999,1,,,,Europe/Rome,1
996,996,LEONARDO DA VINCI - RIBOLLA,,38.126754400000003,13.309735359999999,1,,,,Europe/Rome,1
998,998,LEONARDO DA VINCI - ROMANIA,,38.12621,13.304328330000001,1,,,,Europe/Rome,1
