[{"stop_id":"1","stop_code":"1","stop_name":"A. AMEDEO - COLONNA ROTTA","stop_desc":null,"stop_lat":"38.113305000","stop_lon":"13.352236670","zone_id":"1","stop_url":null,"location_type":null,"parent_station":null,"stop_timezone":"Europe/Rome","wheelchair_boarding":1,"platform_code":null,"direction":null,"position":null},{"stop_id":"10","stop_code":"10","stop_name":"ACC. A29 MONTE - WELLS","stop_desc":null,"stop_lat":"38.178685330","stop_lon":"13.293224950","zone_id":"1","stop_url":null,"location_type":null,"parent_station":null,"stop_timezone":"Europe/Rome","wheelchair_boarding":1,"platform_code":null,"direction":null,"position":null},{"stop_id":"100","stop_code":"100","stop_name":"APOLLO - AGLAIA","stop_desc":null,"stop_lat":"38.199360000","stop_lon":"13.317285000","zone_id":"1","stop_url":null,"location_type":null,"parent_station":null,"stop_timezone":"Europe/Rome","wheelchair_boarding":1,"platform_code":null,"direction":null,"position":null},{"stop_id":"1002","stop_code":"1002","stop_name":"LEONARDO DA VINCI - SILVESTRI","stop_desc":null,"stop_lat":"38.127023330","stop_lon":"13.320998330","zone_id":"1","stop_url":null,"location_type":null,"parent_station":null,"stop_timezone":"Europe/Rome","wheelchair_boarding":1,"platform_code":null,"direction":null,"position":null},{"stop_id":"1004","stop_code":"1004","stop_name":"LEONARDO DA VINCI - UDITORE","stop_desc":null,"stop_lat":"38.127758270","stop_lon":"13.326384640","zone_id":"1","stop_url":null,"location_type":null,"parent_station":null,"stop_timezone":"Europe/Rome","wheelchair_boarding":1,"platform_code":null,"direction":null,"position":null},{"stop_id":"1006","stop_code":"1006","stop_name":"LEONI - FAVORITA","stop_desc":null,"stop_lat":"38.146015515","stop_lon":"13.344976610","zone_id":"1","stop_url":null,"location_type":null,"parent_station":null,"stop_timezone":"Europe/Rome","wheelchair_boarding":1,"platform_code":null,"direction":null,"position":null},{"stop_id":"1007","stop_code":"1007","stop_name":"LEONI - FAVORITA","stop_desc":null,"stop_lat":"38.146249625","stop_lon":"13.344593490","zone_id":"1","stop_url":null,"location_type":null,"parent_station":null,"stop_timezone":"Europe/Rome","wheelchair_boarding":1,"platform_code":null,"direction":null,"position":null},{"stop_id":"1008","stop_code":"1008","stop_name":"LEVRIERE - ANTILOPE","stop_desc":null,"stop_lat":"38.080165440","stop_lon":"13.359033330","zone_id":"1","stop_url":null,"location_type":null,"parent_station":null,"stop_timezone":"Europe/Rome","wheelchair_boarding":1,"platform_code":null,"direction":null,"position":null},{"stop_id":"1009","stop_code":"1009","stop_name":"LEVRIERE - BASSOTTO","stop_desc":null,"stop_lat":"38.084395000","stop_lon":"13.365535000","zone_id":"1","stop_url":null,"location_type":null,"parent_station":null,"stop_timezone":"Europe/Rome","wheelchair_boarding":1,"platform_code":null,"direction":null,"position":null},{"stop_id":"101","stop_code":"101","stop_name":"APOLLO - CATALANO","stop_desc":null,"stop_lat":"38.198121670","stop_lon":"13.314540000","zone_id":"1","stop_url":null,"location_type":null,"parent_station":null,"stop_timezone":"Europe/Rome","wheelchair_boarding":1,"platform_code":null,"direction":null,"position":null},{"stop_id":"1010","stop_code":"1010","stop_name":"LEVRIERE - ERMELLINO","stop_desc":null,"stop_lat":"38.086150000","stop_lon":"13.366116670","zone_id":"1","stop_url":null,"location_type":null,"parent_station":null,"stop_timezone":"Europe/Rome","wheelchair_boarding":1,"platform_code":null,"direction":null,"position":null},{"stop_id":"1011","stop_code":"1011","stop_name":"LEVRIERE - BASSOTTO","stop_desc":null,"stop_lat":"38.082711560","stop_lon":"13.364595160","zone_id":"1","stop_url":null,"location_type":null,"parent_station":null,"stop_timezone":"Europe/Rome","wheelchair_boarding":1,"platform_code":null,"direction":null,"position":null},{"stop_id":"1012","stop_code":"1012","stop_name":"LEVRIERE - RUMORE","stop_desc":null,"stop_lat":"38.080958450","stop_lon":"13.361283850","zone_id":"1","stop_url":null,"location_type":null,"parent_station":null,"stop_timezone":"Europe/Rome","wheelchair_boarding":1,"platform_code":null,"direction":null,"position":null},{"stop_id":"1018","stop_code":"1018","stop_name":"LIBERO GRASSI","stop_desc":null,"stop_lat":"38.113941670","stop_lon":"13.332403330","zone_id":"1","stop_url":null,"location_type":null,"parent_station":null,"stop_timezone":"Europe/Rome","wheelchair_boarding":1,"platform_code":null,"direction":null,"position":null},{"stop_id":"1019","stop_code":"1019","stop_name":"LIBERO GRASSI - DEGLI EMIRI","stop_desc":null,"stop_lat":"38.114564190","stop_lon":"13.332334310","zone_id":"1","stop_url":null,"location_type":null,"parent_station":null,"stop_timezone":"Europe/Rome","wheelchair_boarding":1,"platform_code":null,"direction":null,"position":null},{"stop_id":"102","stop_code":"102","stop_name":"AQUILEIA - DELLE ALPI","stop_desc":null,"stop_lat":"38.143560000","stop_lon":"13.331901670","zone_id":"1","stop_url":null,"location_type":null,"parent_station":null,"stop_timezone":"Europe/Rome","wheelchair_boarding":1,"platform_code":null,"direction":null,"position":null},{"stop_id":"1020","stop_code":"1020","stop_name":"LIBERO GRASSI - LA TORRE","stop_desc":null,"stop_lat":"38.112607910","stop_lon":"13.333505090","zone_id":"1","stop_url":null,"location_type":null,"parent_station":null,"stop_timezone":"Europe/Rome","wheelchair_boarding":1,"platform_code":null,"direction":null,"position":null},{"stop_id":"1021","stop_code":"1021","stop_name":"LIBERO GRASSI - SICCHERIA","stop_desc":null,"stop_lat":"38.112881670","stop_lon":"13.333140000","zone_id":"1","stop_url":null,"location_type":null,"parent_station":null,"stop_timezone":"Europe/Rome","wheelchair_boarding":1,"platform_code":null,"direction":null,"position":null},{"stop_id":"1022","stop_code":"1022","stop_name":"LIBERTA' - ARCHIMEDE","stop_desc":null,"stop_lat":"38.128540000","stop_lon":"13.353138330","zone_id":"1","stop_url":null,"location_type":null,"parent_station":null,"stop_timezone":"Europe/Rome","wheelchair_boarding":1,"platform_code":null,"direction":null,"position":null},{"stop_id":"1023","stop_code":"1023","stop_name":"LIBERTA' - ARIMONDI","stop_desc":null,"stop_lat":"38.136178330","stop_lon":"13.348245000","zone_id":"1","stop_url":null,"location_type":null,"parent_station":null,"stop_timezone":"Europe/Rome","wheelchair_boarding":1,"platform_code":null,"direction":null,"position":null},{"stop_id":"1024","stop_code":"1024","stop_name":"LIBERTA' - ARIMONDI","stop_desc":null,"stop_lat":"38.135698330","stop_lon":"13.348468330","zone_id":"1","stop_url":null,"location_type":null,"parent_station":null,"stop_timezone":"Europe/Rome","wheelchair_boarding":1,"platform_code":null,"direction":null,"position":null},{"stop_id":"1025","stop_code":"1025","stop_name":"LIBERTA' - CROCI","stop_desc":null,"stop_lat":"38.130655000","stop_lon":"13.351783330","zone_id":"1","stop_url":null,"location_type":null,"parent_station":null,"stop_timezone":"Europe/Rome","wheelchair_boarding":1,"platform_code":null,"direction":null,"position":null},{"stop_id":"1026","stop_code":"1026","stop_name":"LIBERTA' - CROCI","stop_desc":null,"stop_lat":"38.129606990","stop_lon":"13.352411990","zone_id":"1","stop_url":null,"location_type":null,"parent_station":null,"stop_timezone":"Europe/Rome","wheelchair_boarding":1,"platform_code":null,"direction":null,"position":null},{"stop_id":"1027","stop_code":"1027","stop_name":"LIBERTA' - D'ANNUNZIO","stop_desc":null,"stop_lat":"38.138930000","stop_lon":"13.346386670","zone_id":"1","stop_url":null,"location_type":null,"parent_station":null,"stop_timezone":"Europe/Rome","wheelchair_boarding":1,"platform_code":null,"direction":null,"position":null},{"stop_id":"1028","stop_code":"1028","stop_name":"LIBERTA' - DON BOSCO","stop_desc":null,"stop_lat":"38.143165000","stop_lon":"13.343690000","zone_id":"1","stop_url":null,"location_type":null,"parent_station":null,"stop_timezone":"Europe/Rome","wheelchair_boarding":1,"platform_code":null,"direction":null,"position":null},{"stop_id":"1029","stop_code":"1029","stop_name":"LIBERTA' - DON BOSCO","stop_desc":null,"stop_lat":"38.143263330","stop_lon":"13.343556670","zone_id":"1","stop_url":null,"location_type":null,"parent_station":null,"stop_timezone":"Europe/Rome","wheelchair_boarding":1,"platform_code":null,"direction":null,"position":null},{"stop_id":"103","stop_code":"103","stop_name":"AQUILEIA - LAZIO","stop_desc":null,"stop_lat":"38.141618330","stop_lon":"13.333456670","zone_id":"1","stop_url":null,"location_type":null,"parent_station":null,"stop_timezone":"Europe/Rome","wheelchair_boarding":1,"platform_code":null,"direction":null,"position":null},{"stop_id":"1030","stop_code":"1030","stop_name":"LIBERTA' - LAZIO","stop_desc":null,"stop_lat":"38.144370000","stop_lon":"13.342918330","zone_id":"1","stop_url":null,"location_type":null,"parent_station":null,"stop_timezone":"Europe/Rome","wheelchair_boarding":1,"platform_code":null,"direction":null,"position":null},{"stop_id":"1031","stop_code":"1031","stop_name":"LIBERTA' - LAZIO","stop_desc":null,"stop_lat":"38.144708330","stop_lon":"13.342538330","zone_id":"1","stop_url":null,"location_type":null,"parent_station":null,"stop_timezone":"Europe/Rome","wheelchair_boarding":1,"platform_code":null,"direction":null,"position":null},{"stop_id":"1032","stop_code":"1032","stop_name":"LIBERTA' - MATTEOTTI","stop_desc":null,"stop_lat":"38.141615380","stop_lon":"13.344697950","zone_id":"1","stop_url":null,"location_type":null,"parent_station":null,"stop_timezone":"Europe/Rome","wheelchair_boarding":1,"platform_code":null,"direction":null,"position":null},{"stop_id":"1033","stop_code":"1033","stop_name":"LIBERTA' - MATTEOTTI","stop_desc":null,"stop_lat":"38.141920000","stop_lon":"13.344430000","zone_id":"1","stop_url":null,"location_type":null,"parent_station":null,"stop_timezone":"Europe/Rome","wheelchair_boarding":1,"platform_code":null,"direction":null,"position":null},{"stop_id":"1034","stop_code":"1034","stop_name":"LIBERTA' - NOTARBARTOLO","stop_desc":null,"stop_lat":"38.134301670","stop_lon":"13.349460000","zone_id":"1","stop_url":null,"location_type":null,"parent_station":null,"stop_timezone":"Europe/Rome","wheelchair_boarding":1,"platform_code":null,"direction":null,"position":null},{"stop_id":"1035","stop_code":"1035","stop_name":"LIBERTA' - NOTARBARTOLO","stop_desc":null,"stop_lat":"38.133210560","stop_lon":"13.350078460","zone_id":"1","stop_url":null,"location_type":null,"parent_station":null,"stop_timezone":"Europe/Rome","wheelchair_boarding":1,"platform_code":null,"direction":null,"position":null},{"stop_id":"1036","stop_code":"1036","stop_name":"LIBERTA' - QUINTINO SELLA","stop_desc":null,"stop_lat":"38.126596670","stop_lon":"13.354433330","zone_id":"1","stop_url":null,"location_type":null,"parent_station":null,"stop_timezone":"Europe/Rome","wheelchair_boarding":1,"platform_code":null,"direction":null,"position":null},{"stop_id":"1037","stop_code":"1037","stop_name":"LIBERTA' - QUINTINO SELLA","stop_desc":null,"stop_lat":"38.126316640","stop_lon":"13.354541493","zone_id":"1","stop_url":null,"location_type":null,"parent_station":null,"stop_timezone":"Europe/Rome","wheelchair_boarding":1,"platform_code":null,"direction":null,"position":null},{"stop_id":"1038","stop_code":"1038","stop_name":"LIBERTA' - UGDULENA","stop_desc":null,"stop_lat":"38.139821670","stop_lon":"13.345845000","zone_id":"1","stop_url":null,"location_type":null,"parent_station":null,"stop_timezone":"Europe/Rome","wheelchair_boarding":1,"platform_code":null,"direction":null,"position":null},{"stop_id":"1039","stop_code":"1039","stop_name":"LIBERTA' - UGDULENA","stop_desc":null,"stop_lat":"38.140235000","stop_lon":"13.345583330","zone_id":"1","stop_url":null,"location_type":null,"parent_station":null,"stop_timezone":"Europe/Rome","wheelchair_boarding":1,"platform_code":null,"direction":null,"position":null},{"stop_id":"104","stop_code":"104","stop_name":"AQUILEIA - LAZIO","stop_desc":null,"stop_lat":"38.141748330","stop_lon":"13.333168330","zone_id":"1","stop_url":null,"location_type":null,"parent_station":null,"stop_timezone":"Europe/Rome","wheelchair_boarding":1,"platform_code":null,"direction":null,"position":null},{"stop_id":"1040","stop_code":"1040","stop_name":"LIBERTA' - VILLA PAINO","stop_desc":null,"stop_lat":"38.137581860","stop_lon":"13.347272870","zone_id":"1","stop_url":null,"location_type":null,"parent_station":null,"stop_timezone":"Europe/Rome","wheelchair_boarding":1,"platform_code":null,"direction":null,"position":null},{"stop_id":"1041","stop_code":"1041","stop_name":"LIBERTA' - VILLA PAINO","stop_desc":null,"stop_lat":"38.137336670","stop_lon":"13.347416670","zone_id":"1","stop_url":null,"location_type":null,"parent_station":null,"stop_timezone":"Europe/Rome","wheelchair_boarding":1,"platform_code":null,"direction":null,"position":null},{"stop_id":"1042","stop_code":"1042","stop_name":"LINCOLN - ARCHIRAFI","stop_desc":null,"stop_lat":"38.112031780","stop_lon":"13.369507040","zone_id":"1","stop_url":null,"location_type":null,"parent_station":null,"stop_timezone":"Europe/Rome","wheelchair_boarding":1,"platform_code":null,"direction":null,"position":null},{"stop_id":"1043","stop_code":"1043","stop_name":"LINCOLN - ARCHIRAFI","stop_desc":null,"stop_lat":"38.112441190","stop_lon":"13.370153460","zone_id":"1","stop_url":null,"location_type":null,"parent_station":null,"stop_timezone":"Europe/Rome","wheelchair_boarding":1,"platform_code":null,"direction":null,"position":null},{"stop_id":"1044","stop_code":"1044","stop_name":"LINCOLN - DEI MILLE","stop_desc":null,"stop_lat":"38.111310030","stop_lon":"13.367760930","zone_id":"1","stop_url":null,"location_type":null,"parent_station":null,"stop_timezone":"Europe/Rome","wheelchair_boarding":1,"platform_code":null,"direction":null,"position":null},{"stop_id":"1045","stop_code":"1045","stop_name":"LINCOLN - ORTO BOTANICO","stop_desc":null,"stop_lat":"38.113647260","stop_lon":"13.372925520","zone_id":"1","stop_url":null,"location_type":null,"parent_station":null,"stop_timezone":"Europe/Rome","wheelchair_boarding":1,"platform_code":null,"direction":null,"position":null},{"stop_id":"1046","stop_code":"1046","stop_name":"LINCOLN - ORTO BOTANICO","stop_desc":null,"stop_lat":"38.113070080","stop_lon":"13.371522730","zone_id":"1","stop_url":null,"location_type":null,"parent_station":null,"stop_timezone":"Europe/Rome","wheelchair_boarding":1,"platform_code":null,"direction":null,"position":null},{"stop_id":"1047","stop_code":"1047","stop_name":"LINCOLN - VILLA GIULIA","stop_desc":null,"stop_lat":"38.114413300","stop_lon":"13.374616650","zone_id":"1","stop_url":null,"location_type":null,"parent_station":null,"stop_timezone":"Europe/Rome","wheelchair_boarding":1,"platform_code":null,"direction":null,"position":null},{"stop_id":"1048","stop_code":"1048","stop_name":"LINCOLN - VILLA GIULIA","stop_desc":null,"stop_lat":"38.114804760","stop_lon":"13.375261720","zone_id":"1","stop_url":null,"location_type":null,"parent_station":null,"stop_timezone":"Europe/Rome","wheelchair_boarding":1,"platform_code":null,"direction":null,"position":null},{"stop_id":"1049","stop_code":"1049","stop_name":"LISZT","stop_desc":null,"stop_lat":"38.136990320","stop_lon":"13.335901170","zone_id":"1","stop_url":null,"location_type":null,"parent_station":null,"stop_timezone":"Europe/Rome","wheelchair_boarding":1,"platform_code":null,"direction":null,"position":null},{"stop_id":"105","stop_code":"105","stop_name":"AQUINO - CALO'","stop_desc":null,"stop_lat":"38.074660120","stop_lon":"13.308280260","zone_id":"1","stop_url":null,"location_type":null,"parent_station":null,"stop_timezone":"Europe/Rome","wheelchair_boarding":1,"platform_code":null,"direction":null,"position":null},{"stop_id":"1050","stop_code":"1050","stop_name":"LISZT","stop_desc":null,"stop_lat":"38.136196670","stop_lon":"13.336088330","zone_id":"1","stop_url":null,"location_type":null,"parent_station":null,"stop_timezone":"Europe/Rome","wheelchair_boarding":1,"platform_code":null,"direction":null,"position":null},{"stop_id":"1051","stop_code":"1051","stop_name":"M. MONTAGNE - FIGURELLA","stop_desc":null,"stop_lat":"38.082110000","stop_lon":"13.433838330","zone_id":"1","stop_url":null,"location_type":null,"parent_station":null,"stop_timezone":"Europe/Rome","wheelchair_boarding":1,"platform_code":null,"direction":null,"position":null},{"stop_id":"1052","stop_code":"1052","stop_name":"M. MONTAGNE 1","stop_desc":null,"stop_lat":"38.083324000","stop_lon":"13.428167320","zone_id":"1","stop_url":null,"location_type":null,"parent_station":null,"stop_timezone":"Europe/Rome","wheelchair_boarding":1,"platform_code":null,"direction":null,"position":null},{"stop_id":"1053","stop_code":"1053","stop_name":"M. MONTAGNE 2","stop_desc":null,"stop_lat":"38.082756670","stop_lon":"13.430815000","zone_id":"1","stop_url":null,"location_type":null,"parent_station":null,"stop_timezone":"Europe/Rome","wheelchair_boarding":1,"platform_code":null,"direction":null,"position":null},{"stop_id":"1054","stop_code":"1054","stop_name":"M. MONTAGNE 2","stop_desc":null,"stop_lat":"38.082722220","stop_lon":"13.431220810","zone_id":"1","stop_url":null,"location_type":null,"parent_station":null,"stop_timezone":"Europe/Rome","wheelchair_boarding":1,"platform_code":null,"direction":null,"position":null},{"stop_id":"1055","stop_code":"1055","stop_name":"M. MONTAGNE 1","stop_desc":null,"stop_lat":"38.083398550","stop_lon":"13.428085000","zone_id":"1","stop_url":null,"location_type":null,"parent_station":null,"stop_timezone":"Europe/Rome","wheelchair_boarding":1,"platform_code":null,"direction":null,"position":null},{"stop_id":"106","stop_code":"106","stop_name":"AQUINO - CALO'","stop_desc":null,"stop_lat":"38.074612610","stop_lon":"13.308293670","zone_id":"1","stop_url":null,"location_type":null,"parent_station":null,"stop_timezone":"Europe/Rome","wheelchair_boarding":1,"platform_code":null,"direction":null,"position":null},{"stop_id":"107","stop_code":"107","stop_name":"AQUINO - CARTIERA","stop_desc":null,"stop_lat":"38.075888330","stop_lon":"13.310228330","zone_id":"1","stop_url":null,"location_type":null,"parent_station":null,"stop_timezone":"Europe/Rome","wheelchair_boarding":1,"platform_code":null,"direction":null,"position":null},{"stop_id":"108","stop_code":"108","stop_name":"AQUINO - CARTIERA","stop_desc":null,"stop_lat":"38.075835000","stop_lon":"13.310233330","zone_id":"1","stop_url":null,"location_type":null,"parent_station":null,"stop_timezone":"Europe/Rome","wheelchair_boarding":1,"platform_code":null,"direction":null,"position":null},{"stop_id":"1083","stop_code":"1083","stop_name":"MALASPINA - PIAZZA VIRGILIO","stop_desc":null,"stop_lat":"38.124107340","stop_lon":"13.348097840","zone_id":"1","stop_url":null,"location_type":null,"parent_station":null,"stop_timezone":"Europe/Rome","wheelchair_boarding":1,"platform_code":null,"direction":null,"position":null},{"stop_id":"1084","stop_code":"1084","stop_name":"MALASPINA - PIAZZA ZIINO","stop_desc":null,"stop_lat":"38.130320130","stop_lon":"13.338802460","zone_id":"1","stop_url":null,"location_type":null,"parent_station":null,"stop_timezone":"Europe/Rome","wheelchair_boarding":1,"platform_code":null,"direction":null,"position":null},{"stop_id":"1085","stop_code":"1085","stop_name":"MALASPINA - TURRISI COLONNA","stop_desc":null,"stop_lat":"38.125216770","stop_lon":"13.346296380","zone_id":"1","stop_url":null,"location_type":null,"parent_station":null,"stop_timezone":"Europe/Rome","wheelchair_boarding":1,"platform_code":null,"direction":null,"position":null},{"stop_id":"1089","stop_code":"1089","stop_name":"MANDERINO - FILISTO","stop_desc":null,"stop_lat":"38.199556730","stop_lon":"13.279991000","zone_id":"1","stop_url":null,"location_type":null,"parent_station":null,"stop_timezone":"Europe/Rome","wheelchair_boarding":1,"platform_code":null,"direction":null,"position":null},{"stop_id":"1090","stop_code":"1090","stop_name":"MANDERINO - FILISTO","stop_desc":null,"stop_lat":"38.199591670","stop_lon":"13.279996670","zone_id":"1","stop_url":null,"location_type":null,"parent_station":null,"stop_timezone":"Europe/Rome","wheelchair_boarding":1,"platform_code":null,"direction":null,"position":null},{"stop_id":"1091","stop_code":"1091","stop_name":"MANDERINO - TERENZIO","stop_desc":null,"stop_lat":"38.198339440","stop_lon":"13.278129550","zone_id":"1","stop_url":null,"location_type":null,"parent_station":null,"stop_timezone":"Europe/Rome","wheelchair_boarding":1,"platform_code":null,"direction":null,"position":null},{"stop_id":"1092","stop_code":"1092","stop_name":"MANDERINO - TERENZIO","stop_desc":null,"stop_lat":"38.198348330","stop_lon":"13.278108330","zone_id":"1","stop_url":null,"location_type":null,"parent_station":null,"stop_timezone":"Europe/Rome","wheelchair_boarding":1,"platform_code":null,"direction":null,"position":null},{"stop_id":"1093","stop_code":"1093","stop_name":"MAQUEDA - PALAZZO COMITINI","stop_desc":null,"stop_lat":"38.113277950","stop_lon":"13.362978550","zone_id":"1","stop_url":null,"location_type":null,"parent_station":null,"stop_timezone":"Europe/Rome","wheelchair_boarding":1,"platform_code":null,"direction":null,"position":null},{"stop_id":"1095","stop_code":"1095","stop_name":"MAQUEDA - S. ANTONINO","stop_desc":null,"stop_lat":"38.111199400","stop_lon":"13.364342710","zone_id":"1","stop_url":null,"location_type":null,"parent_station":null,"stop_timezone":"Europe/Rome","wheelchair_boarding":1,"platform_code":null,"direction":null,"position":null},{"stop_id":"11","stop_code":"11","stop_name":"ACC. A29 MONTE 1","stop_desc":null,"stop_lat":"38.182674410","stop_lon":"13.290641980","zone_id":"1","stop_url":null,"location_type":null,"parent_station":null,"stop_timezone":"Europe/Rome","wheelchair_boarding":1,"platform_code":null,"direction":null,"position":null},{"stop_id":"1101","stop_code":"1101","stop_name":"MARGHERITA DI SAVOIA - DELLE PALME","stop_desc":null,"stop_lat":"38.195845770","stop_lon":"13.332043290","zone_id":"1","stop_url":null,"location_type":null,"parent_station":null,"stop_timezone":"Europe/Rome","wheelchair_boarding":1,"platform_code":null,"direction":null,"position":null},{"stop_id":"1104","stop_code":"1104","stop_name":"MARGHERITA DI SAVOIA - MATER DEI","stop_desc":null,"stop_lat":"38.195666600","stop_lon":"13.331931980","zone_id":"1","stop_url":null,"location_type":null,"parent_station":null,"stop_timezone":"Europe/Rome","wheelchair_boarding":1,"platform_code":null,"direction":null,"position":null},{"stop_id":"1109","stop_code":"1109","stop_name":"MARGHERITA DI SAVOIA - PIAZZA CABOTO","stop_desc":null,"stop_lat":"38.193045300","stop_lon":"13.332468420","zone_id":"1","stop_url":null,"location_type":null,"parent_station":null,"stop_timezone":"Europe/Rome","wheelchair_boarding":1,"platform_code":null,"direction":null,"position":null},{"stop_id":"1110","stop_code":"1110","stop_name":"MARGHERITA DI SAVOIA - PIAZZA CABOTO","stop_desc":null,"stop_lat":"38.193372050","stop_lon":"13.332280670","zone_id":"1","stop_url":null,"location_type":null,"parent_station":null,"stop_timezone":"Europe/Rome","wheelchair_boarding":1,"platform_code":null,"direction":null,"position":null},{"stop_id":"1111","stop_code":"1111","stop_name":"MARGHERITA DI SAVOIA - VENERE","stop_desc":null,"stop_lat":"38.191762550","stop_lon":"13.332661540","zone_id":"1","stop_url":null,"location_type":null,"parent_station":null,"stop_timezone":"Europe/Rome","wheelchair_boarding":1,"platform_code":null,"direction":null,"position":null},{"stop_id":"1112","stop_code":"1112","stop_name":"MARGHERITA DI SAVOIA - VENERE","stop_desc":null,"stop_lat":"38.191984950","stop_lon":"13.332485850","zone_id":"1","stop_url":null,"location_type":null,"parent_station":null,"stop_timezone":"Europe/Rome","wheelchair_boarding":1,"platform_code":null,"direction":null,"position":null},{"stop_id":"1113","stop_code":"1113","stop_name":"MARINI","stop_desc":null,"stop_lat":"38.100479540","stop_lon":"13.350515820","zone_id":"1","stop_url":null,"location_type":null,"parent_station":null,"stop_timezone":"Europe/Rome","wheelchair_boarding":1,"platform_code":null,"direction":null,"position":null},{"stop_id":"1114","stop_code":"1114","stop_name":"MARINI","stop_desc":null,"stop_lat":"38.100586670","stop_lon":"13.350346670","zone_id":"1","stop_url":null,"location_type":null,"parent_station":null,"stop_timezone":"Europe/Rome","wheelchair_boarding":1,"platform_code":null,"direction":null,"position":null},{"stop_id":"1116","stop_code":"1116","stop_name":"MARINUZZI - PALERMO","stop_desc":null,"stop_lat":"38.106243330","stop_lon":"13.364860000","zone_id":"1","stop_url":null,"location_type":null,"parent_station":null,"stop_timezone":"Europe/Rome","wheelchair_boarding":1,"platform_code":null,"direction":null,"position":null},{"stop_id":"1117","stop_code":"1117","stop_name":"MARINUZZI - PISACANE","stop_desc":null,"stop_lat":"38.107910100","stop_lon":"13.363738950","zone_id":"1","stop_url":null,"location_type":null,"parent_station":null,"stop_timezone":"Europe/Rome","wheelchair_boarding":1,"platform_code":null,"direction":null,"position":null},{"stop_id":"1118","stop_code":"1118","stop_name":"MATER DOLOROSA - BARBADORO","stop_desc":null,"stop_lat":"38.174578330","stop_lon":"13.332685000","zone_id":"1","stop_url":null,"location_type":null,"parent_station":null,"stop_timezone":"Europe/Rome","wheelchair_boarding":1,"platform_code":null,"direction":null,"position":null},{"stop_id":"1119","stop_code":"1119","stop_name":"MATER DOLOROSA - BARBADORO","stop_desc":null,"stop_lat":"38.174376670","stop_lon":"13.332101670","zone_id":"1","stop_url":null,"location_type":null,"parent_station":null,"stop_timezone":"Europe/Rome","wheelchair_boarding":1,"platform_code":null,"direction":null,"position":null},{"stop_id":"112","stop_code":"112","stop_name":"AQUINO 1 MONTE","stop_desc":null,"stop_lat":"38.077393350","stop_lon":"13.312184220","zone_id":"1","stop_url":null,"location_type":null,"parent_station":null,"stop_timezone":"Europe/Rome","wheelchair_boarding":1,"platform_code":null,"direction":null,"position":null},{"stop_id":"1120","stop_code":"1120","stop_name":"MATER DOLOROSA - CAMARINA","stop_desc":null,"stop_lat":"38.175230000","stop_lon":"13.334570000","zone_id":"1","stop_url":null,"location_type":null,"parent_station":null,"stop_timezone":"Europe/Rome","wheelchair_boarding":1,"platform_code":null,"direction":null,"position":null},{"stop_id":"1121","stop_code":"1121","stop_name":"MATER DOLOROSA - CAMARINA","stop_desc":null,"stop_lat":"38.175176670","stop_lon":"13.334326670","zone_id":"1","stop_url":null,"location_type":null,"parent_station":null,"stop_timezone":"Europe/Rome","wheelchair_boarding":1,"platform_code":null,"direction":null,"position":null},{"stop_id":"1122","stop_code":"1122","stop_name":"MATER DOLOROSA - MERCADANTE","stop_desc":null,"stop_lat":"38.173766670","stop_lon":"13.330448330","zone_id":"1","stop_url":null,"location_type":null,"parent_station":null,"stop_timezone":"Europe/Rome","wheelchair_boarding":1,"platform_code":null,"direction":null,"position":null},{"stop_id":"1123","stop_code":"1123","stop_name":"MATER DOLOROSA - PETROSINO","stop_desc":null,"stop_lat":"38.173468330","stop_lon":"13.329760000","zone_id":"1","stop_url":null,"location_type":null,"parent_station":null,"stop_timezone":"Europe/Rome","wheelchair_boarding":1,"platform_code":null,"direction":null,"position":null},{"stop_id":"1124","stop_code":"1124","stop_name":"MATTEI - AFRODITE","stop_desc":null,"stop_lat":"38.193738840","stop_lon":"13.321948800","zone_id":"1","stop_url":null,"location_type":null,"parent_station":null,"stop_timezone":"Europe/Rome","wheelchair_boarding":1,"platform_code":null,"direction":null,"position":null},{"stop_id":"1125","stop_code":"1125","stop_name":"MATTEI - CALLIOPE","stop_desc":null,"stop_lat":"38.192176790","stop_lon":"13.322538880","zone_id":"1","stop_url":null,"location_type":null,"parent_station":null,"stop_timezone":"Europe/Rome","wheelchair_boarding":1,"platform_code":null,"direction":null,"position":null},{"stop_id":"1126","stop_code":"1126","stop_name":"MATTEI - COLLOTTI","stop_desc":null,"stop_lat":"38.195372540","stop_lon":"13.321069030","zone_id":"1","stop_url":null,"location_type":null,"parent_station":null,"stop_timezone":"Europe/Rome","wheelchair_boarding":1,"platform_code":null,"direction":null,"position":null},{"stop_id":"1127","stop_code":"1127","stop_name":"MATTEI - GIUGNONE","stop_desc":null,"stop_lat":"38.194891670","stop_lon":"13.321520000","zone_id":"1","stop_url":null,"location_type":null,"parent_station":null,"stop_timezone":"Europe/Rome","wheelchair_boarding":1,"platform_code":null,"direction":null,"position":null},{"stop_id":"1128","stop_code":"1128","stop_name":"MATTEI - TERSICORE","stop_desc":null,"stop_lat":"38.193579800","stop_lon":"13.322163540","zone_id":"1","stop_url":null,"location_type":null,"parent_station":null,"stop_timezone":"Europe/Rome","wheelchair_boarding":1,"platform_code":null,"direction":null,"position":null},{"stop_id":"1129","stop_code":"1129","stop_name":"MATTEI","stop_desc":null,"stop_lat":"38.191475000","stop_lon":"13.322480000","zone_id":"1","stop_url":null,"location_type":null,"parent_station":null,"stop_timezone":"Europe/Rome","wheelchair_boarding":1,"platform_code":null,"direction":null,"position":null},{"stop_id":"113","stop_code":"113","stop_name":"AQUINO 1 VALLE","stop_desc":null,"stop_lat":"38.077380000","stop_lon":"13.312256670","zone_id":"1","stop_url":null,"location_type":null,"parent_station":null,"stop_timezone":"Europe/Rome","wheelchair_boarding":1,"platform_code":null,"direction":null,"position":null},{"stop_id":"1130","stop_code":"1130","stop_name":"MERCURIO","stop_desc":null,"stop_lat":"38.204672940","stop_lon":"13.318046510","zone_id":"1","stop_url":null,"location_type":null,"parent_station":null,"stop_timezone":"Europe/Rome","wheelchair_boarding":1,"platform_code":null,"direction":null,"position":null},{"stop_id":"1131","stop_code":"1131","stop_name":"MESSINA MARINE - ACQUA DEI CORSARI","stop_desc":null,"stop_lat":"38.096716670","stop_lon":"13.426878330","zone_id":"1","stop_url":null,"location_type":null,"parent_station":null,"stop_timezone":"Europe/Rome","wheelchair_boarding":1,"platform_code":null,"direction":null,"position":null},{"stop_id":"1132","stop_code":"1132","stop_name":"MESSINA MARINE - ACQUA DEI CORSARI","stop_desc":null,"stop_lat":"38.096798330","stop_lon":"13.426488330","zone_id":"1","stop_url":null,"location_type":null,"parent_station":null,"stop_timezone":"Europe/Rome","wheelchair_boarding":1,"platform_code":null,"direction":null,"position":null},{"stop_id":"1133","stop_code":"1133","stop_name":"MESSINA MARINE - ALAGNA","stop_desc":null,"stop_lat":"38.104381670","stop_lon":"13.390753330","zone_id":"1","stop_url":null,"location_type":null,"parent_station":null,"stop_timezone":"Europe/Rome","wheelchair_boarding":1,"platform_code":null,"direction":null,"position":null},{"stop_id":"1134","stop_code":"1134","stop_name":"MESSINA MARINE - ALAGNA","stop_desc":null,"stop_lat":"38.104351670","stop_lon":"13.390951670","zone_id":"1","stop_url":null,"location_type":null,"parent_station":null,"stop_timezone":"Europe/Rome","wheelchair_boarding":1,"platform_code":null,"direction":null,"position":null},{"stop_id":"1135","stop_code":"1135","stop_name":"MESSINA MARINE - ALBRICCI","stop_desc":null,"stop_lat":"38.102385000","stop_lon":"13.395825000","zone_id":"1","stop_url":null,"location_type":null,"parent_station":null,"stop_timezone":"Europe/Rome","wheelchair_boarding":1,"platform_code":null,"direction":null,"position":null},{"stop_id":"1136","stop_code":"1136","stop_name":"MESSINA MARINE - ALBRICCI","stop_desc":null,"stop_lat":"38.102370000","stop_lon":"13.396123330","zone_id":"1","stop_url":null,"location_type":null,"parent_station":null,"stop_timezone":"Europe/Rome","wheelchair_boarding":1,"platform_code":null,"direction":null,"position":null},{"stop_id":"1137","stop_code":"1137","stop_name":"MESSINA MARINE - AMMIRAGLIO CRISTODULO","stop_desc":null,"stop_lat":"38.096823330","stop_lon":"13.425383330","zone_id":"1","stop_url":null,"location_type":null,"parent_station":null,"stop_timezone":"Europe/Rome","wheelchair_boarding":1,"platform_code":null,"direction":null,"position":null},{"stop_id":"1138","stop_code":"1138","stop_name":"MESSINA MARINE - BANDITA","stop_desc":null,"stop_lat":"38.097535000","stop_lon":"13.416473330","zone_id":"1","stop_url":null,"location_type":null,"parent_station":null,"stop_timezone":"Europe/Rome","wheelchair_boarding":1,"platform_code":null,"direction":null,"position":null},{"stop_id":"1139","stop_code":"1139","stop_name":"MESSINA MARINE - BANDITA","stop_desc":null,"stop_lat":"38.097520000","stop_lon":"13.417136670","zone_id":"1","stop_url":null,"location_type":null,"parent_station":null,"stop_timezone":"Europe/Rome","wheelchair_boarding":1,"platform_code":null,"direction":null,"position":null},{"stop_id":"114","stop_code":"114","stop_name":"AQUINO 2 MONTE","stop_desc":null,"stop_lat":"38.076386210","stop_lon":"13.310753260","zone_id":"1","stop_url":null,"location_type":null,"parent_station":null,"stop_timezone":"Europe/Rome","wheelchair_boarding":1,"platform_code":null,"direction":null,"position":null},{"stop_id":"1140","stop_code":"1140","stop_name":"MESSINA MARINE - BUCCHERI LA FERLA","stop_desc":null,"stop_lat":"38.106100000","stop_lon":"13.386678330","zone_id":"1","stop_url":null,"location_type":null,"parent_station":null,"stop_timezone":"Europe/Rome","wheelchair_boarding":1,"platform_code":null,"direction":null,"position":null},{"stop_id":"1141","stop_code":"1141","stop_name":"MESSINA MARINE - BUCCHERI LA FERLA","stop_desc":null,"stop_lat":"38.106486670","stop_lon":"13.385686670","zone_id":"1","stop_url":null,"location_type":null,"parent_station":null,"stop_timezone":"Europe/Rome","wheelchair_boarding":1,"platform_code":null,"direction":null,"position":null},{"stop_id":"1142","stop_code":"1142","stop_name":"MESSINA MARINE - CAPPELLO","stop_desc":null,"stop_lat":"38.106670000","stop_lon":"13.384345000","zone_id":"1","stop_url":null,"location_type":null,"parent_station":null,"stop_timezone":"Europe/Rome","wheelchair_boarding":1,"platform_code":null,"direction":null,"position":null},{"stop_id":"1143","stop_code":"1143","stop_name":"MESSINA MARINE - CAPPELLO","stop_desc":null,"stop_lat":"38.106788330","stop_lon":"13.383893330","zone_id":"1","stop_url":null,"location_type":null,"parent_station":null,"stop_timezone":"Europe/Rome","wheelchair_boarding":1,"platform_code":null,"direction":null,"position":null},{"stop_id":"1144","stop_code":"1144","stop_name":"MESSINA MARINE - CARACAUSI","stop_desc":null,"stop_lat":"38.100045000","stop_lon":"13.402815000","zone_id":"1","stop_url":null,"location_type":null,"parent_station":null,"stop_timezone":"Europe/Rome","wheelchair_boarding":1,"platform_code":null,"direction":null,"position":null},{"stop_id":"1145","stop_code":"1145","stop_name":"MESSINA MARINE - CARACAUSI","stop_desc":null,"stop_lat":"38.100428330","stop_lon":"13.401793330","zone_id":"1","stop_url":null,"location_type":null,"parent_station":null,"stop_timezone":"Europe/Rome","wheelchair_boarding":1,"platform_code":null,"direction":null,"position":null},{"stop_id":"1147","stop_code":"1147","stop_name":"MESSINA MARINE - CLOBER","stop_desc":null,"stop_lat":"38.103311670","stop_lon":"13.393270000","zone_id":"1","stop_url":null,"location_type":null,"parent_station":null,"stop_timezone":"Europe/Rome","wheelchair_boarding":1,"platform_code":null,"direction":null,"position":null},{"stop_id":"1148","stop_code":"1148","stop_name":"MESSINA MARINE - D' AOSTA","stop_desc":null,"stop_lat":"38.105435000","stop_lon":"13.388590000","zone_id":"1","stop_url":null,"location_type":null,"parent_station":null,"stop_timezone":"Europe/Rome","wheelchair_boarding":1,"platform_code":null,"direction":null,"position":null},{"stop_id":"1149","stop_code":"1149","stop_name":"MESSINA MARINE - D' AOSTA","stop_desc":null,"stop_lat":"38.105861670","stop_lon":"13.387675000","zone_id":"1","stop_url":null,"location_type":null,"parent_station":null,"stop_timezone":"Europe/Rome","wheelchair_boarding":1,"platform_code":null,"direction":null,"position":null},{"stop_id":"115","stop_code":"115","stop_name":"AQUINO 2 VALLE","stop_desc":null,"stop_lat":"38.076342930","stop_lon":"13.310797510","zone_id":"1","stop_url":null,"location_type":null,"parent_station":null,"stop_timezone":"Europe/Rome","wheelchair_boarding":1,"platform_code":null,"direction":null,"position":null},{"stop_id":"1150","stop_code":"1150","stop_name":"MESSINA MARINE - DIAZ","stop_desc":null,"stop_lat":"38.103198947","stop_lon":"13.393775720","zone_id":"1","stop_url":null,"location_type":null,"parent_station":null,"stop_timezone":"Europe/Rome","wheelchair_boarding":1,"platform_code":null,"direction":null,"position":null},{"stop_id":"1151","stop_code":"1151","stop_name":"MESSINA MARINE - FIUME ORETO","stop_desc":null,"stop_lat":"38.109285855","stop_lon":"13.379840428","zone_id":"1","stop_url":null,"location_type":null,"parent_station":null,"stop_timezone":"Europe/Rome","wheelchair_boarding":1,"platform_code":null,"direction":null,"position":null},{"stop_id":"1152","stop_code":"1152","stop_name":"MESSINA MARINE - LAUDICINA","stop_desc":null,"stop_lat":"38.097860000","stop_lon":"13.412881670","zone_id":"1","stop_url":null,"location_type":null,"parent_station":null,"stop_timezone":"Europe/Rome","wheelchair_boarding":1,"platform_code":null,"direction":null,"position":null},{"stop_id":"1153","stop_code":"1153","stop_name":"MESSINA MARINE - BERTETT","stop_desc":null,"stop_lat":"38.097746670","stop_lon":"13.414510000","zone_id":"1","stop_url":null,"location_type":null,"parent_station":null,"stop_timezone":"Europe/Rome","wheelchair_boarding":1,"platform_code":null,"direction":null,"position":null},{"stop_id":"1154","stop_code":"1154","stop_name":"MESSINA MARINE - LAUDICINA","stop_desc":null,"stop_lat":"38.097918330","stop_lon":"13.412975000","zone_id":"1","stop_url":null,"location_type":null,"parent_station":null,"stop_timezone":"Europe/Rome","wheelchair_boarding":1,"platform_code":null,"direction":null,"position":null},{"stop_id":"1155","stop_code":"1155","stop_name":"MESSINA MARINE - LI GOTTI","stop_desc":null,"stop_lat":"38.096906670","stop_lon":"13.421400000","zone_id":"1","stop_url":null,"location_type":null,"parent_station":null,"stop_timezone":"Europe/Rome","wheelchair_boarding":1,"platform_code":null,"direction":null,"position":null},{"stop_id":"1156","stop_code":"1156","stop_name":"MESSINA MARINE - PALUMBO","stop_desc":null,"stop_lat":"38.101600000","stop_lon":"13.398236670","zone_id":"1","stop_url":null,"location_type":null,"parent_station":null,"stop_timezone":"Europe/Rome","wheelchair_boarding":1,"platform_code":null,"direction":null,"position":null},{"stop_id":"1157","stop_code":"1157","stop_name":"MESSINA MARINE - PALUMBO","stop_desc":null,"stop_lat":"38.101255000","stop_lon":"13.399435000","zone_id":"1","stop_url":null,"location_type":null,"parent_station":null,"stop_timezone":"Europe/Rome","wheelchair_boarding":1,"platform_code":null,"direction":null,"position":null},{"stop_id":"1158","stop_code":"1158","stop_name":"MESSINA MARINE - PIAZZETTA SPERONE","stop_desc":null,"stop_lat":"38.099548330","stop_lon":"13.404433330","zone_id":"1","stop_url":null,"location_type":null,"parent_station":null,"stop_timezone":"Europe/Rome","wheelchair_boarding":1,"platform_code":null,"direction":null,"position":null},{"stop_id":"1159","stop_code":"1159","stop_name":"MESSINA MARINE - RAVENNA","stop_desc":null,"stop_lat":"38.100910000","stop_lon":"13.400088330","zone_id":"1","stop_url":null,"location_type":null,"parent_station":null,"stop_timezone":"Europe/Rome","wheelchair_boarding":1,"platform_code":null,"direction":null,"position":null},{"stop_id":"116","stop_code":"116","stop_name":"AQUINO 3 MONTE","stop_desc":null,"stop_lat":"38.075082410","stop_lon":"13.309685740","zone_id":"1","stop_url":null,"location_type":null,"parent_station":null,"stop_timezone":"Europe/Rome","wheelchair_boarding":1,"platform_code":null,"direction":null,"position":null},{"stop_id":"1160","stop_code":"1160","stop_name":"MESSINA MARINE - SAETTA","stop_desc":null,"stop_lat":"38.107550000","stop_lon":"13.381970000","zone_id":"1","stop_url":null,"location_type":null,"parent_station":null,"stop_timezone":"Europe/Rome","wheelchair_boarding":1,"platform_code":null,"direction":null,"position":null},{"stop_id":"1161","stop_code":"1161","stop_name":"MESSINA MARINE - SAETTA","stop_desc":null,"stop_lat":"38.107565000","stop_lon":"13.382086670","zone_id":"1","stop_url":null,"location_type":null,"parent_station":null,"stop_timezone":"Europe/Rome","wheelchair_boarding":1,"platform_code":null,"direction":null,"position":null},{"stop_id":"1162","stop_code":"1162","stop_name":"MESSINA MARINE - XXVII MAGGIO","stop_desc":null,"stop_lat":"38.098533330","stop_lon":"13.406595000","zone_id":"1","stop_url":null,"location_type":null,"parent_station":null,"stop_timezone":"Europe/Rome","wheelchair_boarding":1,"platform_code":null,"direction":null,"position":null},{"stop_id":"1163","stop_code":"1163","stop_name":"MESSINA MARINE - ZUCCHETTO","stop_desc":null,"stop_lat":"38.096720000","stop_lon":"13.423003330","zone_id":"1","stop_url":null,"location_type":null,"parent_station":null,"stop_timezone":"Europe/Rome","wheelchair_boarding":1,"platform_code":null,"direction":null,"position":null},{"stop_id":"1164","stop_code":"1164","stop_name":"MESSINA MARINE - ZUCCHETTO","stop_desc":null,"stop_lat":"38.096813330","stop_lon":"13.423741670","zone_id":"1","stop_url":null,"location_type":null,"parent_station":null,"stop_timezone":"Europe/Rome","wheelchair_boarding":1,"platform_code":null,"direction":null,"position":null},{"stop_id":"1165","stop_code":"1165","stop_name":"MESSINA MARINE 1","stop_desc":null,"stop_lat":"38.097300000","stop_lon":"13.418981670","zone_id":"1","stop_url":null,"location_type":null,"parent_station":null,"stop_timezone":"Europe/Rome","wheelchair_boarding":1,"platform_code":null,"direction":null,"position":null},{"stop_id":"1166","stop_code":"1166","stop_name":"MESSINA MARINE 2","stop_desc":null,"stop_lat":"38.098145000","stop_lon":"13.411153330","zone_id":"1","stop_url":null,"location_type":null,"parent_station":null,"stop_timezone":"Europe/Rome","wheelchair_boarding":1,"platform_code":null,"direction":null,"position":null},{"stop_id":"1167","stop_code":"1167","stop_name":"MESSINA MARINE 3","stop_desc":null,"stop_lat":"38.098445000","stop_lon":"13.408211670","zone_id":"1","stop_url":null,"location_type":null,"parent_station":null,"stop_timezone":"Europe/Rome","wheelchair_boarding":1,"platform_code":null,"direction":null,"position":null},{"stop_id":"1168","stop_code":"1168","stop_name":"MESSINA MARINE 4","stop_desc":null,"stop_lat":"38.101858330","stop_lon":"13.397585000","zone_id":"1","stop_url":null,"location_type":null,"parent_station":null,"stop_timezone":"Europe/Rome","wheelchair_boarding":1,"platform_code":null,"direction":null,"position":null},{"stop_id":"1169","stop_code":"1169","stop_name":"MESSINA MARINE 3","stop_desc":null,"stop_lat":"38.098303330","stop_lon":"13.408650000","zone_id":"1","stop_url":null,"location_type":null,"parent_station":null,"stop_timezone":"Europe/Rome","wheelchair_boarding":1,"platform_code":null,"direction":null,"position":null},{"stop_id":"117","stop_code":"117","stop_name":"AQUINO 3 VALLE","stop_desc":null,"stop_lat":"38.075029620","stop_lon":"13.309669640","zone_id":"1","stop_url":null,"location_type":null,"parent_station":null,"stop_timezone":"Europe/Rome","wheelchair_boarding":1,"platform_code":null,"direction":null,"position":null},{"stop_id":"1170","stop_code":"1170","stop_name":"MESSINA MARINE 2","stop_desc":null,"stop_lat":"38.098038330","stop_lon":"13.410996670","zone_id":"1","stop_url":null,"location_type":null,"parent_station":null,"stop_timezone":"Europe/Rome","wheelchair_boarding":1,"platform_code":null,"direction":null,"position":null},{"stop_id":"1171","stop_code":"1171","stop_name":"MESSINA MARINE 1","stop_desc":null,"stop_lat":"38.097300000","stop_lon":"13.418676670","zone_id":"1","stop_url":null,"location_type":null,"parent_station":null,"stop_timezone":"Europe/Rome","wheelchair_boarding":1,"platform_code":null,"direction":null,"position":null},{"stop_id":"1172","stop_code":"1172","stop_name":"MICHELANGELO - BADIA","stop_desc":null,"stop_lat":"38.137156580","stop_lon":"13.319181360","zone_id":"1","stop_url":null,"location_type":null,"parent_station":null,"stop_timezone":"Europe/Rome","wheelchair_boarding":1,"platform_code":null,"direction":null,"position":null},{"stop_id":"1173","stop_code":"1173","stop_name":"MICHELANGELO - BADIA","stop_desc":null,"stop_lat":"38.136697090","stop_lon":"13.317996670","zone_id":"1","stop_url":null,"location_type":null,"parent_station":null,"stop_timezone":"Europe/Rome","wheelchair_boarding":1,"platform_code":null,"direction":null,"position":null},{"stop_id":"1174","stop_code":"1174","stop_name":"MICHELANGELO - BERNINI","stop_desc":null,"stop_lat":"38.137875530","stop_lon":"13.323037240","zone_id":"1","stop_url":null,"location_type":null,"parent_station":null,"stop_timezone":"Europe/Rome","wheelchair_boarding":1,"platform_code":null,"direction":null,"position":null},{"stop_id":"1175","stop_code":"1175","stop_name":"MICHELANGELO - BRUNELLESCHI","stop_desc":null,"stop_lat":"38.135580150","stop_lon":"13.314802360","zone_id":"1","stop_url":null,"location_type":null,"parent_station":null,"stop_timezone":"Europe/Rome","wheelchair_boarding":1,"platform_code":null,"direction":null,"position":null},{"stop_id":"1176","stop_code":"1176","stop_name":"MICHELANGELO - CASALINI","stop_desc":null,"stop_lat":"38.134486980","stop_lon":"13.312728910","zone_id":"1","stop_url":null,"location_type":null,"parent_station":null,"stop_timezone":"Europe/Rome","wheelchair_boarding":1,"platform_code":null,"direction":null,"position":null},{"stop_id":"1177","stop_code":"1177","stop_name":"MICHELANGELO - CAVA","stop_desc":null,"stop_lat":"38.132744540","stop_lon":"13.308171670","zone_id":"1","stop_url":null,"location_type":null,"parent_station":null,"stop_timezone":"Europe/Rome","wheelchair_boarding":1,"platform_code":null,"direction":null,"position":null},{"stop_id":"1178","stop_code":"1178","stop_name":"MICHELANGELO - FELICE","stop_desc":null,"stop_lat":"38.138518520","stop_lon":"13.325786880","zone_id":"1","stop_url":null,"location_type":null,"parent_station":null,"stop_timezone":"Europe/Rome","wheelchair_boarding":1,"platform_code":null,"direction":null,"position":null},{"stop_id":"1179","stop_code":"1179","stop_name":"MICHELANGELO - FRONTINI","stop_desc":null,"stop_lat":"38.132888160","stop_lon":"13.309030430","zone_id":"1","stop_url":null,"location_type":null,"parent_station":null,"stop_timezone":"Europe/Rome","wheelchair_boarding":1,"platform_code":null,"direction":null,"position":null},{"stop_id":"118","stop_code":"118","stop_name":"AQUINO 4 MONTE","stop_desc":null,"stop_lat":"38.074738330","stop_lon":"13.305571670","zone_id":"1","stop_url":null,"location_type":null,"parent_station":null,"stop_timezone":"Europe/Rome","wheelchair_boarding":1,"platform_code":null,"direction":null,"position":null},{"stop_id":"1180","stop_code":"1180","stop_name":"MICHELANGELO - PALADINI","stop_desc":null,"stop_lat":"38.133995060","stop_lon":"13.311025360","zone_id":"1","stop_url":null,"location_type":null,"parent_station":null,"stop_timezone":"Europe/Rome","wheelchair_boarding":1,"platform_code":null,"direction":null,"position":null},{"stop_id":"1181","stop_code":"1181","stop_name":"MICHELANGELO - PALADINI","stop_desc":null,"stop_lat":"38.133619050","stop_lon":"13.310711100","zone_id":"1","stop_url":null,"location_type":null,"parent_station":null,"stop_timezone":"Europe/Rome","wheelchair_boarding":1,"platform_code":null,"direction":null,"position":null},{"stop_id":"1182","stop_code":"1182","stop_name":"MICHELANGELO - REGIONE SICILIANA","stop_desc":null,"stop_lat":"38.139297220","stop_lon":"13.329114560","zone_id":"1","stop_url":null,"location_type":null,"parent_station":null,"stop_timezone":"Europe/Rome","wheelchair_boarding":1,"platform_code":null,"direction":null,"position":null},{"stop_id":"1183","stop_code":"1183","stop_name":"MICHELANGELO - SALERNO","stop_desc":null,"stop_lat":"38.137636270","stop_lon":"13.321271590","zone_id":"1","stop_url":null,"location_type":null,"parent_station":null,"stop_timezone":"Europe/Rome","wheelchair_boarding":1,"platform_code":null,"direction":null,"position":null},{"stop_id":"1184","stop_code":"1184","stop_name":"MICHELANGELO - SANTUARIO DI CRUILLAS","stop_desc":null,"stop_lat":"38.139109390","stop_lon":"13.327531050","zone_id":"1","stop_url":null,"location_type":null,"parent_station":null,"stop_timezone":"Europe/Rome","wheelchair_boarding":1,"platform_code":null,"direction":null,"position":null},{"stop_id":"1185","stop_code":"1185","stop_name":"MICHELANGELO 1","stop_desc":null,"stop_lat":"38.138781360","stop_lon":"13.326144080","zone_id":"1","stop_url":null,"location_type":null,"parent_station":null,"stop_timezone":"Europe/Rome","wheelchair_boarding":1,"platform_code":null,"direction":null,"position":null},{"stop_id":"1186","stop_code":"1186","stop_name":"MICHELANGELO 2","stop_desc":null,"stop_lat":"38.136710760","stop_lon":"13.317479520","zone_id":"1","stop_url":null,"location_type":null,"parent_station":null,"stop_timezone":"Europe/Rome","wheelchair_boarding":1,"platform_code":null,"direction":null,"position":null},{"stop_id":"1187","stop_code":"1187","stop_name":"MICHELANGELO 3","stop_desc":null,"stop_lat":"38.134616750","stop_lon":"13.312522890","zone_id":"1","stop_url":null,"location_type":null,"parent_station":null,"stop_timezone":"Europe/Rome","wheelchair_boarding":1,"platform_code":null,"direction":null,"position":null},{"stop_id":"1188","stop_code":"1188","stop_name":"MICHELANGELO 4","stop_desc":null,"stop_lat":"38.132048310","stop_lon":"13.306513830","zone_id":"1","stop_url":null,"location_type":null,"parent_station":null,"stop_timezone":"Europe/Rome","wheelchair_boarding":1,"platform_code":null,"direction":null,"position":null},{"stop_id":"1189","stop_code":"1189","stop_name":"MICHELANGELO 5","stop_desc":null,"stop_lat":"38.131834660","stop_lon":"13.306575940","zone_id":"1","stop_url":null,"location_type":null,"parent_station":null,"stop_timezone":"Europe/Rome","wheelchair_boarding":1,"platform_code":null,"direction":null,"position":null},{"stop_id":"119","stop_code":"119","stop_name":"AQUINO 4 VALLE","stop_desc":null,"stop_lat":"38.074695000","stop_lon":"13.305538330","zone_id":"1","stop_url":null,"location_type":null,"parent_station":null,"stop_timezone":"Europe/Rome","wheelchair_boarding":1,"platform_code":null,"direction":null,"position":null},{"stop_id":"1190","stop_code":"1190","stop_name":"MICHELANGELO 6","stop_desc":null,"stop_lat":"38.136094620","stop_lon":"13.316415570","zone_id":"1","stop_url":null,"location_type":null,"parent_station":null,"stop_timezone":"Europe/Rome","wheelchair_boarding":1,"platform_code":null,"direction":null,"position":null},{"stop_id":"1191","stop_code":"1191","stop_name":"MICHELANGELO 7","stop_desc":null,"stop_lat":"38.137197360","stop_lon":"13.320153660","zone_id":"1","stop_url":null,"location_type":null,"parent_station":null,"stop_timezone":"Europe/Rome","wheelchair_boarding":1,"platform_code":null,"direction":null,"position":null},{"stop_id":"1192","stop_code":"1192","stop_name":"MICHELE PIAZZA","stop_desc":null,"stop_lat":"38.116215000","stop_lon":"13.344206670","zone_id":"1","stop_url":null,"location_type":null,"parent_station":null,"stop_timezone":"Europe/Rome","wheelchair_boarding":1,"platform_code":null,"direction":null,"position":null},{"stop_id":"120","stop_code":"120","stop_name":"AQUINO 5 MONTE","stop_desc":null,"stop_lat":"38.074747340","stop_lon":"13.304209640","zone_id":"1","stop_url":null,"location_type":null,"parent_station":null,"stop_timezone":"Europe/Rome","wheelchair_boarding":1,"platform_code":null,"direction":null,"position":null},{"stop_id":"1200","stop_code":"1200","stop_name":"MOLARA - MIMOSA","stop_desc":null,"stop_lat":"38.079722160","stop_lon":"13.312253950","zone_id":"1","stop_url":null,"location_type":null,"parent_station":null,"stop_timezone":"Europe/Rome","wheelchair_boarding":1,"platform_code":null,"direction":null,"position":null},{"stop_id":"1201","stop_code":"1201","stop_name":"MOLARA - MIMOSA","stop_desc":null,"stop_lat":"38.079569090","stop_lon":"13.312239200","zone_id":"1","stop_url":null,"location_type":null,"parent_station":null,"stop_timezone":"Europe/Rome","wheelchair_boarding":1,"platform_code":null,"direction":null,"position":null},{"stop_id":"1202","stop_code":"1202","stop_name":"MOLARA - PIAZZA MOLARA","stop_desc":null,"stop_lat":"38.080930870","stop_lon":"13.311201180","zone_id":"1","stop_url":null,"location_type":null,"parent_station":null,"stop_timezone":"Europe/Rome","wheelchair_boarding":1,"platform_code":null,"direction":null,"position":null},{"stop_id":"1203","stop_code":"1203","stop_name":"MOLARA - PIAZZA MOLARA","stop_desc":null,"stop_lat":"38.080878090","stop_lon":"13.311134130","zone_id":"1","stop_url":null,"location_type":null,"parent_station":null,"stop_timezone":"Europe/Rome","wheelchair_boarding":1,"platform_code":null,"direction":null,"position":null},{"stop_id":"1207","stop_code":"1207","stop_name":"MONDELLO - STESICORO","stop_desc":null,"stop_lat":"38.204915000","stop_lon":"13.322903330","zone_id":"1","stop_url":null,"location_type":null,"parent_station":null,"stop_timezone":"Europe/Rome","wheelchair_boarding":1,"platform_code":null,"direction":null,"position":null},{"stop_id":"1208","stop_code":"1208","stop_name":"MONDELLO - TOLOMEA","stop_desc":null,"stop_lat":"38.206204570","stop_lon":"13.324225990","zone_id":"1","stop_url":null,"location_type":null,"parent_station":null,"stop_timezone":"Europe/Rome","wheelchair_boarding":1,"platform_code":null,"direction":null,"position":null},{"stop_id":"1209","stop_code":"1209","stop_name":"MONETA - ALOI","stop_desc":null,"stop_lat":"38.085311640","stop_lon":"13.353121430","zone_id":"1","stop_url":null,"location_type":null,"parent_station":null,"stop_timezone":"Europe/Rome","wheelchair_boarding":1,"platform_code":null,"direction":null,"position":null},{"stop_id":"121","stop_code":"121","stop_name":"AQUINO 5 VALLE","stop_desc":null,"stop_lat":"38.074679120","stop_lon":"13.304184530","zone_id":"1","stop_url":null,"location_type":null,"parent_station":null,"stop_timezone":"Europe/Rome","wheelchair_boarding":1,"platform_code":null,"direction":null,"position":null},{"stop_id":"1210","stop_code":"1210","stop_name":"MONETA - ERMELLINO","stop_desc":null,"stop_lat":"38.084724908","stop_lon":"13.353881377","zone_id":"1","stop_url":null,"location_type":null,"parent_station":null,"stop_timezone":"Europe/Rome","wheelchair_boarding":1,"platform_code":null,"direction":null,"position":null},{"stop_id":"1211","stop_code":"1211","stop_name":"MONTE SAN CALOGERO","stop_desc":null,"stop_lat":"38.153955700","stop_lon":"13.324282390","zone_id":"1","stop_url":null,"location_type":null,"parent_station":null,"stop_timezone":"Europe/Rome","wheelchair_boarding":1,"platform_code":null,"direction":null,"position":null},{"stop_id":"1212","stop_code":"1212","stop_name":"MONTECARLO","stop_desc":null,"stop_lat":"38.155131390","stop_lon":"13.324634710","zone_id":"1","stop_url":null,"location_type":null,"parent_station":null,"stop_timezone":"Europe/Rome","wheelchair_boarding":1,"platform_code":null,"direction":null,"position":null},{"stop_id":"1213","stop_code":"1213","stop_name":"MONTEPELLEGRINO - AMMIRAGLIO RIZZO","stop_desc":null,"stop_lat":"38.141071440","stop_lon":"13.358001730","zone_id":"1","stop_url":null,"location_type":null,"parent_station":null,"stop_timezone":"Europe/Rome","wheelchair_boarding":1,"platform_code":null,"direction":null,"position":null},{"stop_id":"1214","stop_code":"1214","stop_name":"MONTEPELLEGRINO - AMMIRAGLIO RIZZO","stop_desc":null,"stop_lat":"38.140882310","stop_lon":"13.357779090","zone_id":"1","stop_url":null,"location_type":null,"parent_station":null,"stop_timezone":"Europe/Rome","wheelchair_boarding":1,"platform_code":null,"direction":null,"position":null},{"stop_id":"1215","stop_code":"1215","stop_name":"MONTEPELLEGRINO - LORIA","stop_desc":null,"stop_lat":"38.139452280","stop_lon":"13.358288710","zone_id":"1","stop_url":null,"location_type":null,"parent_station":null,"stop_timezone":"Europe/Rome","wheelchair_boarding":1,"platform_code":null,"direction":null,"position":null},{"stop_id":"1216","stop_code":"1216","stop_name":"MONTEPELLEGRINO - LORIA","stop_desc":null,"stop_lat":"38.139480510","stop_lon":"13.358041940","zone_id":"1","stop_url":null,"location_type":null,"parent_station":null,"stop_timezone":"Europe/Rome","wheelchair_boarding":1,"platform_code":null,"direction":null,"position":null},{"stop_id":"1217","stop_code":"1217","stop_name":"MONTEPELLEGRINO - MERCATO","stop_desc":null,"stop_lat":"38.136587160","stop_lon":"13.358452320","zone_id":"1","stop_url":null,"location_type":null,"parent_station":null,"stop_timezone":"Europe/Rome","wheelchair_boarding":1,"platform_code":null,"direction":null,"position":null},{"stop_id":"1218","stop_code":"1218","stop_name":"MONTEPELLEGRINO - MERCATO","stop_desc":null,"stop_lat":"38.136468340","stop_lon":"13.358594850","zone_id":"1","stop_url":null,"location_type":null,"parent_station":null,"stop_timezone":"Europe/Rome","wheelchair_boarding":1,"platform_code":null,"direction":null,"position":null},{"stop_id":"122","stop_code":"122","stop_name":"AQUINO MOLARA - DECANO","stop_desc":null,"stop_lat":"38.080986310","stop_lon":"13.307647970","zone_id":"1","stop_url":null,"location_type":null,"parent_station":null,"stop_timezone":"Europe/Rome","wheelchair_boarding":1,"platform_code":null,"direction":null,"position":null},{"stop_id":"1220","stop_code":"1220","stop_name":"MONTEPELLEGRINO - MONTALBO","stop_desc":null,"stop_lat":"38.137454480","stop_lon":"13.358586430","zone_id":"1","stop_url":null,"location_type":null,"parent_station":null,"stop_timezone":"Europe/Rome","wheelchair_boarding":1,"platform_code":null,"direction":null,"position":null},{"stop_id":"1221","stop_code":"1221","stop_name":"MONTEPELLEGRINO - MONTALBO","stop_desc":null,"stop_lat":"38.138039650","stop_lon":"13.358256520","zone_id":"1","stop_url":null,"location_type":null,"parent_station":null,"stop_timezone":"Europe/Rome","wheelchair_boarding":1,"platform_code":null,"direction":null,"position":null},{"stop_id":"1222","stop_code":"1222","stop_name":"MONTUORO","stop_desc":null,"stop_lat":"38.125265660","stop_lon":"13.330838620","zone_id":"1","stop_url":null,"location_type":null,"parent_station":null,"stop_timezone":"Europe/Rome","wheelchair_boarding":1,"platform_code":null,"direction":null,"position":null},{"stop_id":"123","stop_code":"123","stop_name":"AQUINO MOLARA - DECANO","stop_desc":null,"stop_lat":"38.080922430","stop_lon":"13.307666030","zone_id":"1","stop_url":null,"location_type":null,"parent_station":null,"stop_timezone":"Europe/Rome","wheelchair_boarding":1,"platform_code":null,"direction":null,"position":null},{"stop_id":"1231","stop_code":"1231","stop_name":"NEBRODI - BELGIO","stop_desc":null,"stop_lat":"38.149636670","stop_lon":"13.329426670","zone_id":"1","stop_url":null,"location_type":null,"parent_station":null,"stop_timezone":"Europe/Rome","wheelchair_boarding":1,"platform_code":null,"direction":null,"position":null},{"stop_id":"1233","stop_code":"1233","stop_name":"NEBRODI - DE GASPERI","stop_desc":null,"stop_lat":"38.149728330","stop_lon":"13.329315000","zone_id":"1","stop_url":null,"location_type":null,"parent_station":null,"stop_timezone":"Europe/Rome","wheelchair_boarding":1,"platform_code":null,"direction":null,"position":null},{"stop_id":"1234","stop_code":"1234","stop_name":"NEBRODI - DELLE MADONIE","stop_desc":null,"stop_lat":"38.146466670","stop_lon":"13.331465000","zone_id":"1","stop_url":null,"location_type":null,"parent_station":null,"stop_timezone":"Europe/Rome","wheelchair_boarding":1,"platform_code":null,"direction":null,"position":null},{"stop_id":"1237","stop_code":"1237","stop_name":"NEBRODI - SARDEGNA","stop_desc":null,"stop_lat":"38.145960000","stop_lon":"13.331693330","zone_id":"1","stop_url":null,"location_type":null,"parent_station":null,"stop_timezone":"Europe/Rome","wheelchair_boarding":1,"platform_code":null,"direction":null,"position":null},{"stop_id":"1238","stop_code":"1238","stop_name":"NENNI - ACC. A29 VALLE","stop_desc":null,"stop_lat":"38.152362600","stop_lon":"13.322719930","zone_id":"1","stop_url":null,"location_type":null,"parent_station":null,"stop_timezone":"Europe/Rome","wheelchair_boarding":1,"platform_code":null,"direction":null,"position":null},{"stop_id":"1239","stop_code":"1239","stop_name":"NENNI - CROCE ROSSA ITALIANA","stop_desc":null,"stop_lat":"38.154785740","stop_lon":"13.320385690","zone_id":"1","stop_url":null,"location_type":null,"parent_station":null,"stop_timezone":"Europe/Rome","wheelchair_boarding":1,"platform_code":null,"direction":null,"position":null},{"stop_id":"124","stop_code":"124","stop_name":"AQUINO MOLARA - GALATI","stop_desc":null,"stop_lat":"38.080369270","stop_lon":"13.305670470","zone_id":"1","stop_url":null,"location_type":null,"parent_station":null,"stop_timezone":"Europe/Rome","wheelchair_boarding":1,"platform_code":null,"direction":null,"position":null},{"stop_id":"1240","stop_code":"1240","stop_name":"NENNI - CROCE ROSSA ITALIANA","stop_desc":null,"stop_lat":"38.155043330","stop_lon":"13.320043330","zone_id":"1","stop_url":null,"location_type":null,"parent_station":null,"stop_timezone":"Europe/Rome","wheelchair_boarding":1,"platform_code":null,"direction":null,"position":null},{"stop_id":"1242","stop_code":"1242","stop_name":"NICOLETTI - PIAZZA BOLIVAR","stop_desc":null,"stop_lat":"38.189025923","stop_lon":"13.296653637","zone_id":"1","stop_url":null,"location_type":null,"parent_station":null,"stop_timezone":"Europe/Rome","wheelchair_boarding":1,"platform_code":null,"direction":null,"position":null},{"stop_id":"1243","stop_code":"1243","stop_name":"NICOLETTI - PIAZZA BOLIVAR","stop_desc":null,"stop_lat":"38.188852690","stop_lon":"13.297095940","zone_id":"1","stop_url":null,"location_type":null,"parent_station":null,"stop_timezone":"Europe/Rome","wheelchair_boarding":1,"platform_code":null,"direction":null,"position":null},{"stop_id":"1244","stop_code":"1244","stop_name":"NICOLETTI - T.S. 49","stop_desc":null,"stop_lat":"38.193423180","stop_lon":"13.286192210","zone_id":"1","stop_url":null,"location_type":null,"parent_station":null,"stop_timezone":"Europe/Rome","wheelchair_boarding":1,"platform_code":null,"direction":null,"position":null},{"stop_id":"1246","stop_code":"1246","stop_name":"NICOLETTI","stop_desc":null,"stop_lat":"38.191073590","stop_lon":"13.291220480","zone_id":"1","stop_url":null,"location_type":null,"parent_station":null,"stop_timezone":"Europe/Rome","wheelchair_boarding":1,"platform_code":null,"direction":null,"position":null},{"stop_id":"1247","stop_code":"1247","stop_name":"NINA SICILIANA - PARCHEGGIO EMIRI","stop_desc":null,"stop_lat":"38.115973330","stop_lon":"13.332043330","zone_id":"1","stop_url":null,"location_type":null,"parent_station":"40000","stop_timezone":"","wheelchair_boarding":1,"platform_code":null,"direction":null,"position":null},{"stop_id":"1248","stop_code":"1248","stop_name":"NINA SICILIANA - PERPIGNANO","stop_desc":null,"stop_lat":"38.118582100","stop_lon":"13.331438450","zone_id":"1","stop_url":null,"location_type":null,"parent_station":null,"stop_timezone":"Europe/Rome","wheelchair_boarding":1,"platform_code":null,"direction":null,"position":null},{"stop_id":"1249","stop_code":"1249","stop_name":"NINA SICILIANA - SCUOLA LA TORRE","stop_desc":null,"stop_lat":"38.116386670","stop_lon":"13.331923330","zone_id":"1","stop_url":null,"location_type":null,"parent_station":"40000","stop_timezone":"","wheelchair_boarding":1,"platform_code":null,"direction":null,"position":null},{"stop_id":"125","stop_code":"125","stop_name":"AQUINO MOLARA - GALATI","stop_desc":null,"stop_lat":"38.080378520","stop_lon":"13.305827320","zone_id":"1","stop_url":null,"location_type":null,"parent_station":null,"stop_timezone":"Europe/Rome","wheelchair_boarding":1,"platform_code":null,"direction":null,"position":null},{"stop_id":"1250","stop_code":"1250","stop_name":"NISO","stop_desc":null,"stop_lat":"38.205646570","stop_lon":"13.318335210","zone_id":"1","stop_url":null,"location_type":null,"parent_station":null,"stop_timezone":"Europe/Rome","wheelchair_boarding":1,"platform_code":null,"direction":null,"position":null},{"stop_id":"1253","stop_code":"1253","stop_name":"NOCE - LITTARA","stop_desc":null,"stop_lat":"38.121158590","stop_lon":"13.335287420","zone_id":"1","stop_url":null,"location_type":null,"parent_station":null,"stop_timezone":"Europe/Rome","wheelchair_boarding":1,"platform_code":null,"direction":null,"position":null},{"stop_id":"1254","stop_code":"1254","stop_name":"NOCE - LITTARA","stop_desc":null,"stop_lat":"38.121006660","stop_lon":"13.335558330","zone_id":"1","stop_url":null,"location_type":null,"parent_station":null,"stop_timezone":"Europe/Rome","wheelchair_boarding":1,"platform_code":null,"direction":null,"position":null},{"stop_id":"1255","stop_code":"1255","stop_name":"NOTARBARTOLO - DI MARIA","stop_desc":null,"stop_lat":"38.131982670","stop_lon":"13.342914280","zone_id":"1","stop_url":null,"location_type":null,"parent_station":null,"stop_timezone":"Europe/Rome","wheelchair_boarding":1,"platform_code":null,"direction":null,"position":null},{"stop_id":"1256","stop_code":"1256","stop_name":"NOTARBARTOLO - MORELLO","stop_desc":null,"stop_lat":"38.132473330","stop_lon":"13.344875000","zone_id":"1","stop_url":null,"location_type":null,"parent_station":null,"stop_timezone":"Europe/Rome","wheelchair_boarding":1,"platform_code":null,"direction":null,"position":null},{"stop_id":"1257","stop_code":"1257","stop_name":"NOTARBARTOLO - PETRARCA","stop_desc":null,"stop_lat":"38.133185000","stop_lon":"13.347646670","zone_id":"1","stop_url":null,"location_type":null,"parent_station":null,"stop_timezone":"Europe/Rome","wheelchair_boarding":1,"platform_code":null,"direction":null,"position":null},{"stop_id":"1258","stop_code":"1258","stop_name":"NOTARBARTOLO - PETRARCA","stop_desc":null,"stop_lat":"38.133208100","stop_lon":"13.347550250","zone_id":"1","stop_url":null,"location_type":null,"parent_station":null,"stop_timezone":"Europe/Rome","wheelchair_boarding":1,"platform_code":null,"direction":null,"position":null},{"stop_id":"1259","stop_code":"1259","stop_name":"NOTARBARTOLO - SCIUTI","stop_desc":null,"stop_lat":"38.132290970","stop_lon":"13.343936540","zone_id":"1","stop_url":null,"location_type":null,"parent_station":null,"stop_timezone":"Europe/Rome","wheelchair_boarding":1,"platform_code":null,"direction":null,"position":null},{"stop_id":"1260","stop_code":"1260","stop_name":"OLIMPO - ASPASIA","stop_desc":null,"stop_lat":"38.188849470","stop_lon":"13.311991480","zone_id":"1","stop_url":null,"location_type":null,"parent_station":null,"stop_timezone":"Europe/Rome","wheelchair_boarding":1,"platform_code":null,"direction":null,"position":null},{"stop_id":"1261","stop_code":"1261","stop_name":"OLIMPO - CASTELFORTE","stop_desc":null,"stop_lat":"38.188890250","stop_lon":"13.320783380","zone_id":"1","stop_url":null,"location_type":null,"parent_station":null,"stop_timezone":"Europe/Rome","wheelchair_boarding":1,"platform_code":null,"direction":null,"position":null},{"stop_id":"1262","stop_code":"1262","stop_name":"OLIMPO - CASTELFORTE","stop_desc":null,"stop_lat":"38.189032550","stop_lon":"13.320198660","zone_id":"1","stop_url":null,"location_type":null,"parent_station":null,"stop_timezone":"Europe/Rome","wheelchair_boarding":1,"platform_code":null,"direction":null,"position":null},{"stop_id":"1263","stop_code":"1263","stop_name":"OLIMPO - CHIRONE","stop_desc":null,"stop_lat":"38.188864080","stop_lon":"13.307592380","zone_id":"1","stop_url":null,"location_type":null,"parent_station":null,"stop_timezone":"Europe/Rome","wheelchair_boarding":1,"platform_code":null,"direction":null,"position":null},{"stop_id":"1264","stop_code":"1264","stop_name":"OLIMPO - CHIRONE","stop_desc":null,"stop_lat":"38.189097830","stop_lon":"13.306804730","zone_id":"1","stop_url":null,"location_type":null,"parent_station":null,"stop_timezone":"Europe/Rome","wheelchair_boarding":1,"platform_code":null,"direction":null,"position":null},{"stop_id":"1265","stop_code":"1265","stop_name":"OLIMPO - EURIPIDE","stop_desc":null,"stop_lat":"38.189114660","stop_lon":"13.304275810","zone_id":"1","stop_url":null,"location_type":null,"parent_station":null,"stop_timezone":"Europe/Rome","wheelchair_boarding":1,"platform_code":null,"direction":null,"position":null},{"stop_id":"1266","stop_code":"1266","stop_name":"OLIMPO - PALASPORT","stop_desc":null,"stop_lat":"38.188881820","stop_lon":"13.316749330","zone_id":"1","stop_url":null,"location_type":null,"parent_station":null,"stop_timezone":"Europe/Rome","wheelchair_boarding":1,"platform_code":null,"direction":null,"position":null},{"stop_id":"1267","stop_code":"1267","stop_name":"OLIMPO - PALASPORT","stop_desc":null,"stop_lat":"38.189062060","stop_lon":"13.316760060","zone_id":"1","stop_url":null,"location_type":null,"parent_station":null,"stop_timezone":"Europe/Rome","wheelchair_boarding":1,"platform_code":null,"direction":null,"position":null},{"stop_id":"1268","stop_code":"1268","stop_name":"OLIMPO - VILLA SCALEA","stop_desc":null,"stop_lat":"38.188895990","stop_lon":"13.302389010","zone_id":"1","stop_url":null,"location_type":null,"parent_station":null,"stop_timezone":"Europe/Rome","wheelchair_boarding":1,"platform_code":null,"direction":null,"position":null},{"stop_id":"1269","stop_code":"1269","stop_name":"OLIMPO - VILLA SCALEA","stop_desc":null,"stop_lat":"38.189112950","stop_lon":"13.301399590","zone_id":"1","stop_url":null,"location_type":null,"parent_station":null,"stop_timezone":"Europe/Rome","wheelchair_boarding":1,"platform_code":null,"direction":null,"position":null},{"stop_id":"1270","stop_code":"1270","stop_name":"OLIMPO","stop_desc":null,"stop_lat":"38.188877010","stop_lon":"13.304904920","zone_id":"1","stop_url":null,"location_type":null,"parent_station":null,"stop_timezone":"Europe/Rome","wheelchair_boarding":1,"platform_code":null,"direction":null,"position":null},{"stop_id":"1271","stop_code":"1271","stop_name":"OLIMPO","stop_desc":null,"stop_lat":"38.189082630","stop_lon":"13.312365730","zone_id":"1","stop_url":null,"location_type":null,"parent_station":null,"stop_timezone":"Europe/Rome","wheelchair_boarding":1,"platform_code":null,"direction":null,"position":null},{"stop_id":"1272","stop_code":"1272","stop_name":"OLIO DI LINO - MOLARA","stop_desc":null,"stop_lat":"38.078594680","stop_lon":"13.313582970","zone_id":"1","stop_url":null,"location_type":null,"parent_station":null,"stop_timezone":"Europe/Rome","wheelchair_boarding":1,"platform_code":null,"direction":null,"position":null},{"stop_id":"1273","stop_code":"1273","stop_name":"OLIO DI LINO - MOLARA","stop_desc":null,"stop_lat":"38.078491130","stop_lon":"13.313672930","zone_id":"1","stop_url":null,"location_type":null,"parent_station":null,"stop_timezone":"Europe/Rome","wheelchair_boarding":1,"platform_code":null,"direction":null,"position":null},{"stop_id":"1274","stop_code":"1274","stop_name":"OLIO DI LINO 1","stop_desc":null,"stop_lat":"38.084987890","stop_lon":"13.326355710","zone_id":"1","stop_url":null,"location_type":null,"parent_station":null,"stop_timezone":"Europe/Rome","wheelchair_boarding":1,"platform_code":null,"direction":null,"position":null},{"stop_id":"1275","stop_code":"1275","stop_name":"OLIO DI LINO 10","stop_desc":null,"stop_lat":"38.080823200","stop_lon":"13.318876330","zone_id":"1","stop_url":null,"location_type":null,"parent_station":null,"stop_timezone":"Europe/Rome","wheelchair_boarding":1,"platform_code":null,"direction":null,"position":null},{"stop_id":"1276","stop_code":"1276","stop_name":"OLIO DI LINO 11","stop_desc":null,"stop_lat":"38.081230670","stop_lon":"13.320705590","zone_id":"1","stop_url":null,"location_type":null,"parent_station":null,"stop_timezone":"Europe/Rome","wheelchair_boarding":1,"platform_code":null,"direction":null,"position":null},{"stop_id":"1279","stop_code":"1279","stop_name":"OLIO DI LINO 14","stop_desc":null,"stop_lat":"38.084941220","stop_lon":"13.326423050","zone_id":"1","stop_url":null,"location_type":null,"parent_station":null,"stop_timezone":"Europe/Rome","wheelchair_boarding":1,"platform_code":null,"direction":null,"position":null},{"stop_id":"128","stop_code":"128","stop_name":"ARCHIRAFI - TIRO A SEGNO","stop_desc":null,"stop_lat":"38.108917330","stop_lon":"13.374166960","zone_id":"1","stop_url":null,"location_type":null,"parent_station":null,"stop_timezone":"Europe/Rome","wheelchair_boarding":1,"platform_code":null,"direction":null,"position":null},{"stop_id":"1282","stop_code":"1282","stop_name":"OLIO DI LINO 4","stop_desc":null,"stop_lat":"38.081302460","stop_lon":"13.320698890","zone_id":"1","stop_url":null,"location_type":null,"parent_station":null,"stop_timezone":"Europe/Rome","wheelchair_boarding":1,"platform_code":null,"direction":null,"position":null},{"stop_id":"1283","stop_code":"1283","stop_name":"OLIO DI LINO 5","stop_desc":null,"stop_lat":"38.080879150","stop_lon":"13.318939360","zone_id":"1","stop_url":null,"location_type":null,"parent_station":null,"stop_timezone":"Europe/Rome","wheelchair_boarding":1,"platform_code":null,"direction":null,"position":null},{"stop_id":"1288","stop_code":"1288","stop_name":"ORETO - BERGAMO","stop_desc":null,"stop_lat":"38.104870000","stop_lon":"13.368395000","zone_id":"1","stop_url":null,"location_type":null,"parent_station":null,"stop_timezone":"Europe/Rome","wheelchair_boarding":1,"platform_code":null,"direction":null,"position":null},{"stop_id":"1289","stop_code":"1289","stop_name":"ORETO - BERGAMO","stop_desc":null,"stop_lat":"38.104356670","stop_lon":"13.368816670","zone_id":"1","stop_url":null,"location_type":null,"parent_station":null,"stop_timezone":"Europe/Rome","wheelchair_boarding":1,"platform_code":null,"direction":null,"position":null},{"stop_id":"1290","stop_code":"1290","stop_name":"ORETO - BUONRIPOSO","stop_desc":null,"stop_lat":"38.099753330","stop_lon":"13.371783330","zone_id":"1","stop_url":null,"location_type":null,"parent_station":null,"stop_timezone":"Europe/Rome","wheelchair_boarding":1,"platform_code":null,"direction":null,"position":null},{"stop_id":"1291","stop_code":"1291","stop_name":"ORETO - BUONRIPOSO","stop_desc":null,"stop_lat":"38.100141670","stop_lon":"13.371565000","zone_id":"1","stop_url":null,"location_type":null,"parent_station":null,"stop_timezone":"Europe/Rome","wheelchair_boarding":1,"platform_code":null,"direction":null,"position":null},{"stop_id":"1292","stop_code":"1292","stop_name":"ORETO - CONCORDIA","stop_desc":null,"stop_lat":"38.098360000","stop_lon":"13.372778330","zone_id":"1","stop_url":null,"location_type":null,"parent_station":null,"stop_timezone":"Europe/Rome","wheelchair_boarding":1,"platform_code":null,"direction":null,"position":null},{"stop_id":"1293","stop_code":"1293","stop_name":"ORETO - ERRANTE","stop_desc":null,"stop_lat":"38.108127998","stop_lon":"13.366312093","zone_id":"1","stop_url":null,"location_type":null,"parent_station":null,"stop_timezone":"Europe/Rome","wheelchair_boarding":1,"platform_code":null,"direction":null,"position":null},{"stop_id":"1294","stop_code":"1294","stop_name":"ORETO - ERRANTE","stop_desc":null,"stop_lat":"38.107522760","stop_lon":"13.366774110","zone_id":"1","stop_url":null,"location_type":null,"parent_station":null,"stop_timezone":"Europe/Rome","wheelchair_boarding":1,"platform_code":null,"direction":null,"position":null},{"stop_id":"1295","stop_code":"1295","stop_name":"ORETO - LA COLLA","stop_desc":null,"stop_lat":"38.100660000","stop_lon":"13.371165000","zone_id":"1","stop_url":null,"location_type":null,"parent_station":null,"stop_timezone":"Europe/Rome","wheelchair_boarding":1,"platform_code":null,"direction":null,"position":null},{"stop_id":"1296","stop_code":"1296","stop_name":"ORETO - LA COLLA","stop_desc":null,"stop_lat":"38.101016670","stop_lon":"13.371005000","zone_id":"1","stop_url":null,"location_type":null,"parent_station":null,"stop_timezone":"Europe/Rome","wheelchair_boarding":1,"platform_code":null,"direction":null,"position":null},{"stop_id":"1297","stop_code":"1297","stop_name":"ORETO - LO BIANCO","stop_desc":null,"stop_lat":"38.095530990","stop_lon":"13.374454380","zone_id":"1","stop_url":null,"location_type":null,"parent_station":null,"stop_timezone":"Europe/Rome","wheelchair_boarding":1,"platform_code":null,"direction":null,"position":null},{"stop_id":"1298","stop_code":"1298","stop_name":"ORETO - LO BIANCO","stop_desc":null,"stop_lat":"38.095410330","stop_lon":"13.374650570","zone_id":"1","stop_url":null,"location_type":null,"parent_station":null,"stop_timezone":"Europe/Rome","wheelchair_boarding":1,"platform_code":null,"direction":null,"position":null},{"stop_id":"1299","stop_code":"1299","stop_name":"ORETO - MENDOLA","stop_desc":null,"stop_lat":"38.106616823","stop_lon":"13.367254123","zone_id":"1","stop_url":null,"location_type":null,"parent_station":null,"stop_timezone":"Europe/Rome","wheelchair_boarding":1,"platform_code":null,"direction":null,"position":null},{"stop_id":"13","stop_code":"13","stop_name":"ACC. A29 MONTE 3","stop_desc":null,"stop_lat":"38.176536790","stop_lon":"13.294694800","zone_id":"1","stop_url":null,"location_type":null,"parent_station":null,"stop_timezone":"Europe/Rome","wheelchair_boarding":1,"platform_code":null,"direction":null,"position":null},{"stop_id":"130","stop_code":"130","stop_name":"ARCULEO","stop_desc":null,"stop_lat":"38.117278330","stop_lon":"13.333568330","zone_id":"1","stop_url":null,"location_type":null,"parent_station":null,"stop_timezone":"Europe/Rome","wheelchair_boarding":1,"platform_code":null,"direction":null,"position":null},{"stop_id":"1300","stop_code":"1300","stop_name":"ORETO - MENDOLA","stop_desc":null,"stop_lat":"38.106151670","stop_lon":"13.367686670","zone_id":"1","stop_url":null,"location_type":null,"parent_station":null,"stop_timezone":"Europe/Rome","wheelchair_boarding":1,"platform_code":null,"direction":null,"position":null},{"stop_id":"1301","stop_code":"1301","stop_name":"ORETO - ORSA MINORE","stop_desc":null,"stop_lat":"38.096871370","stop_lon":"13.373584000","zone_id":"1","stop_url":null,"location_type":null,"parent_station":null,"stop_timezone":"Europe/Rome","wheelchair_boarding":1,"platform_code":null,"direction":null,"position":null},{"stop_id":"1302","stop_code":"1302","stop_name":"ORETO - ORSA MINORE","stop_desc":null,"stop_lat":"38.096826205","stop_lon":"13.373727550","zone_id":"1","stop_url":null,"location_type":null,"parent_station":null,"stop_timezone":"Europe/Rome","wheelchair_boarding":1,"platform_code":null,"direction":null,"position":null},{"stop_id":"1303","stop_code":"1303","stop_name":"ORETO - ORSA MINORE - O.S.6","stop_desc":null,"stop_lat":"38.097590000","stop_lon":"13.373020000","zone_id":"1","stop_url":null,"location_type":null,"parent_station":null,"stop_timezone":"Europe/Rome","wheelchair_boarding":1,"platform_code":null,"direction":null,"position":null},{"stop_id":"1304","stop_code":"1304","stop_name":"ORETO - ORSI","stop_desc":null,"stop_lat":"38.094346850","stop_lon":"13.375210490","zone_id":"1","stop_url":null,"location_type":null,"parent_station":null,"stop_timezone":"Europe/Rome","wheelchair_boarding":1,"platform_code":null,"direction":null,"position":null},{"stop_id":"1305","stop_code":"1305","stop_name":"ORETO - REGIONE SICILIANA","stop_desc":null,"stop_lat":"38.092417800","stop_lon":"13.376487630","zone_id":"1","stop_url":null,"location_type":null,"parent_station":null,"stop_timezone":"Europe/Rome","wheelchair_boarding":1,"platform_code":null,"direction":null,"position":null},{"stop_id":"1307","stop_code":"1307","stop_name":"ORETO - S. ANTONINO","stop_desc":null,"stop_lat":"38.109155280","stop_lon":"13.365612480","zone_id":"1","stop_url":null,"location_type":null,"parent_station":null,"stop_timezone":"Europe/Rome","wheelchair_boarding":1,"platform_code":null,"direction":null,"position":null},{"stop_id":"1308","stop_code":"1308","stop_name":"ORETO - SIRILLO","stop_desc":null,"stop_lat":"38.094028050","stop_lon":"13.375523240","zone_id":"1","stop_url":null,"location_type":null,"parent_station":null,"stop_timezone":"Europe/Rome","wheelchair_boarding":1,"platform_code":null,"direction":null,"position":null},{"stop_id":"1309","stop_code":"1309","stop_name":"ORSA MAGGIORE - CAPRICORNO","stop_desc":null,"stop_lat":"38.093820000","stop_lon":"13.363360000","zone_id":"1","stop_url":null,"location_type":null,"parent_station":null,"stop_timezone":"Europe/Rome","wheelchair_boarding":1,"platform_code":null,"direction":null,"position":null},{"stop_id":"131","stop_code":"131","stop_name":"ARTALE","stop_desc":null,"stop_lat":"38.099816670","stop_lon":"13.348040000","zone_id":"1","stop_url":null,"location_type":null,"parent_station":null,"stop_timezone":"Europe/Rome","wheelchair_boarding":1,"platform_code":null,"direction":null,"position":null},{"stop_id":"1310","stop_code":"1310","stop_name":"ORSA MAGGIORE - CAPRICORNO","stop_desc":null,"stop_lat":"38.093724080","stop_lon":"13.363199830","zone_id":"1","stop_url":null,"location_type":null,"parent_station":null,"stop_timezone":"Europe/Rome","wheelchair_boarding":1,"platform_code":null,"direction":null,"position":null},{"stop_id":"1311","stop_code":"1311","stop_name":"ORSA MAGGIORE - ORSA MINORE","stop_desc":null,"stop_lat":"38.093901670","stop_lon":"13.365170000","zone_id":"1","stop_url":null,"location_type":null,"parent_station":null,"stop_timezone":"Europe/Rome","wheelchair_boarding":1,"platform_code":null,"direction":null,"position":null},{"stop_id":"1312","stop_code":"1312","stop_name":"ORSA MAGGIORE - ORSA MINORE","stop_desc":null,"stop_lat":"38.093796910","stop_lon":"13.364860120","zone_id":"1","stop_url":null,"location_type":null,"parent_station":null,"stop_timezone":"Europe/Rome","wheelchair_boarding":1,"platform_code":null,"direction":null,"position":null},{"stop_id":"1314","stop_code":"1314","stop_name":"ORSA MINORE - ALBIRI","stop_desc":null,"stop_lat":"38.090721260","stop_lon":"13.365532010","zone_id":"1","stop_url":null,"location_type":null,"parent_station":null,"stop_timezone":"Europe/Rome","wheelchair_boarding":1,"platform_code":null,"direction":null,"position":null},{"stop_id":"1316","stop_code":"1316","stop_name":"ORSA MINORE - CHIAVELLI","stop_desc":null,"stop_lat":"38.094836670","stop_lon":"13.367986670","zone_id":"1","stop_url":null,"location_type":null,"parent_station":null,"stop_timezone":"Europe/Rome","wheelchair_boarding":1,"platform_code":null,"direction":null,"position":null},{"stop_id":"1317","stop_code":"1317","stop_name":"ORSA MINORE - CHIAVELLI","stop_desc":null,"stop_lat":"38.095557380","stop_lon":"13.369275030","zone_id":"1","stop_url":null,"location_type":null,"parent_station":null,"stop_timezone":"Europe/Rome","wheelchair_boarding":1,"platform_code":null,"direction":null,"position":null},{"stop_id":"1318","stop_code":"1318","stop_name":"ORSA MINORE - ORETO","stop_desc":null,"stop_lat":"38.096880000","stop_lon":"13.372178330","zone_id":"1","stop_url":null,"location_type":null,"parent_station":null,"stop_timezone":"Europe/Rome","wheelchair_boarding":1,"platform_code":null,"direction":null,"position":null},{"stop_id":"1319","stop_code":"1319","stop_name":"ORSA MINORE - ORETO","stop_desc":null,"stop_lat":"38.096890450","stop_lon":"13.372451130","zone_id":"1","stop_url":null,"location_type":null,"parent_station":null,"stop_timezone":"Europe/Rome","wheelchair_boarding":1,"platform_code":null,"direction":null,"position":null},{"stop_id":"132","stop_code":"132","stop_name":"ARTIGLIERE","stop_desc":null,"stop_lat":"38.146048330","stop_lon":"13.342801670","zone_id":"1","stop_url":null,"location_type":null,"parent_station":null,"stop_timezone":"Europe/Rome","wheelchair_boarding":1,"platform_code":null,"direction":null,"position":null},{"stop_id":"1320","stop_code":"1320","stop_name":"ORSA MINORE - ORSA MAGGIORE","stop_desc":null,"stop_lat":"38.092673900","stop_lon":"13.365663440","zone_id":"1","stop_url":null,"location_type":null,"parent_station":null,"stop_timezone":"Europe/Rome","wheelchair_boarding":1,"platform_code":null,"direction":null,"position":null},{"stop_id":"1321","stop_code":"1321","stop_name":"ORSA MINORE - S. M. DI GESU'","stop_desc":null,"stop_lat":"38.096194870","stop_lon":"13.370152860","zone_id":"1","stop_url":null,"location_type":null,"parent_station":null,"stop_timezone":"Europe/Rome","wheelchair_boarding":1,"platform_code":null,"direction":null,"position":null},{"stop_id":"1322","stop_code":"1322","stop_name":"ORSA MINORE - S. M. DI GESU'","stop_desc":null,"stop_lat":"38.096485170","stop_lon":"13.371045650","zone_id":"1","stop_url":null,"location_type":null,"parent_station":null,"stop_timezone":"Europe/Rome","wheelchair_boarding":1,"platform_code":null,"direction":null,"position":null},{"stop_id":"1323","stop_code":"1323","stop_name":"ORSA MINORE","stop_desc":null,"stop_lat":"38.094189530","stop_lon":"13.367115850","zone_id":"1","stop_url":null,"location_type":null,"parent_station":null,"stop_timezone":"Europe/Rome","wheelchair_boarding":1,"platform_code":null,"direction":null,"position":null},{"stop_id":"1324","stop_code":"1324","stop_name":"ORSA MINORE","stop_desc":null,"stop_lat":"38.094131670","stop_lon":"13.366748330","zone_id":"1","stop_url":null,"location_type":null,"parent_station":null,"stop_timezone":"Europe/Rome","wheelchair_boarding":1,"platform_code":null,"direction":null,"position":null},{"stop_id":"1326","stop_code":"1326","stop_name":"OSPEDALE CERVELLO","stop_desc":null,"stop_lat":"38.154240000","stop_lon":"13.313155000","zone_id":"1","stop_url":null,"location_type":null,"parent_station":null,"stop_timezone":"Europe/Rome","wheelchair_boarding":1,"platform_code":null,"direction":null,"position":null},{"stop_id":"1327","stop_code":"1327","stop_name":"OSPEDALE CIVICO","stop_desc":null,"stop_lat":"38.103674210","stop_lon":"13.355290000","zone_id":"1","stop_url":null,"location_type":null,"parent_station":null,"stop_timezone":"Europe/Rome","wheelchair_boarding":1,"platform_code":null,"direction":null,"position":null},{"stop_id":"1328","stop_code":"1328","stop_name":"PACINOTTI","stop_desc":null,"stop_lat":"38.129252530","stop_lon":"13.335101010","zone_id":"1","stop_url":null,"location_type":null,"parent_station":null,"stop_timezone":"Europe/Rome","wheelchair_boarding":1,"platform_code":null,"direction":null,"position":null},{"stop_id":"133","stop_code":"133","stop_name":"ARTIGLIERE","stop_desc":null,"stop_lat":"38.146190750","stop_lon":"13.342769190","zone_id":"1","stop_url":null,"location_type":null,"parent_station":null,"stop_timezone":"Europe/Rome","wheelchair_boarding":1,"platform_code":null,"direction":null,"position":null},{"stop_id":"1337","stop_code":"1337","stop_name":"PALADINI - BARISANO DA TRANI","stop_desc":null,"stop_lat":"38.136003330","stop_lon":"13.308876670","zone_id":"1","stop_url":null,"location_type":null,"parent_station":null,"stop_timezone":"Europe/Rome","wheelchair_boarding":1,"platform_code":null,"direction":null,"position":null},{"stop_id":"1339","stop_code":"1339","stop_name":"PALADINI - BERRETTARO","stop_desc":null,"stop_lat":"38.137223330","stop_lon":"13.308041670","zone_id":"1","stop_url":null,"location_type":null,"parent_station":null,"stop_timezone":"Europe/Rome","wheelchair_boarding":1,"platform_code":null,"direction":null,"position":null},{"stop_id":"1340","stop_code":"1340","stop_name":"PALADINI - MICHELANGELO","stop_desc":null,"stop_lat":"38.134289640","stop_lon":"13.309588950","zone_id":"1","stop_url":null,"location_type":null,"parent_station":null,"stop_timezone":"Europe/Rome","wheelchair_boarding":1,"platform_code":null,"direction":null,"position":null},{"stop_id":"1341","stop_code":"1341","stop_name":"PALERMO","stop_desc":null,"stop_lat":"38.105303370","stop_lon":"13.363383820","zone_id":"1","stop_url":null,"location_type":null,"parent_station":null,"stop_timezone":"Europe/Rome","wheelchair_boarding":1,"platform_code":null,"direction":null,"position":null},{"stop_id":"1342","stop_code":"1342","stop_name":"PALERMO - CAMPING","stop_desc":null,"stop_lat":"38.198555490","stop_lon":"13.254125000","zone_id":"1","stop_url":null,"location_type":null,"parent_station":null,"stop_timezone":"Europe/Rome","wheelchair_boarding":1,"platform_code":null,"direction":null,"position":null},{"stop_id":"1343","stop_code":"1343","stop_name":"PALERMO - CAMPING","stop_desc":null,"stop_lat":"38.198490150","stop_lon":"13.254528790","zone_id":"1","stop_url":null,"location_type":null,"parent_station":null,"stop_timezone":"Europe/Rome","wheelchair_boarding":1,"platform_code":null,"direction":null,"position":null},{"stop_id":"1344","stop_code":"1344","stop_name":"PALERMO - PIANO LEVANTE","stop_desc":null,"stop_lat":"38.198592650","stop_lon":"13.251006020","zone_id":"1","stop_url":null,"location_type":null,"parent_station":null,"stop_timezone":"Europe/Rome","wheelchair_boarding":1,"platform_code":null,"direction":null,"position":null},{"stop_id":"135","stop_code":"135","stop_name":"ATLANTE - IFIGENIA","stop_desc":null,"stop_lat":"38.197523680","stop_lon":"13.312139960","zone_id":"1","stop_url":null,"location_type":null,"parent_station":null,"stop_timezone":"Europe/Rome","wheelchair_boarding":1,"platform_code":null,"direction":null,"position":null},{"stop_id":"1350","stop_code":"1350","stop_name":"PANEPINTO","stop_desc":null,"stop_lat":"38.083263270","stop_lon":"13.362000210","zone_id":"1","stop_url":null,"location_type":null,"parent_station":null,"stop_timezone":"Europe/Rome","wheelchair_boarding":1,"platform_code":null,"direction":null,"position":null},{"stop_id":"1351","stop_code":"1351","stop_name":"PANEPINTO - GIRAFFA","stop_desc":null,"stop_lat":"38.083743040","stop_lon":"13.361345080","zone_id":"1","stop_url":null,"location_type":null,"parent_station":null,"stop_timezone":"Europe/Rome","wheelchair_boarding":1,"platform_code":null,"direction":null,"position":null},{"stop_id":"1354","stop_code":"1354","stop_name":"PANTALICA - TINDARI","stop_desc":null,"stop_lat":"38.128783080","stop_lon":"13.292986300","zone_id":"1","stop_url":null,"location_type":null,"parent_station":null,"stop_timezone":"Europe/Rome","wheelchair_boarding":1,"platform_code":null,"direction":null,"position":null},{"stop_id":"1355","stop_code":"1355","stop_name":"PANTALICA - ZANCLE","stop_desc":null,"stop_lat":"38.126656280","stop_lon":"13.292762340","zone_id":"1","stop_url":null,"location_type":null,"parent_station":null,"stop_timezone":"Europe/Rome","wheelchair_boarding":1,"platform_code":null,"direction":null,"position":null},{"stop_id":"1356","stop_code":"1356","stop_name":"PANTALICA - ZANCLE","stop_desc":null,"stop_lat":"38.126521250","stop_lon":"13.292649690","zone_id":"1","stop_url":null,"location_type":null,"parent_station":null,"stop_timezone":"Europe/Rome","wheelchair_boarding":1,"platform_code":null,"direction":null,"position":null},{"stop_id":"1357","stop_code":"1357","stop_name":"PAPA GIOVANNI XXIII - BASSOTTO","stop_desc":null,"stop_lat":"38.085130080","stop_lon":"13.361990150","zone_id":"1","stop_url":null,"location_type":null,"parent_station":null,"stop_timezone":"Europe/Rome","wheelchair_boarding":1,"platform_code":null,"direction":null,"position":null},{"stop_id":"1358","stop_code":"1358","stop_name":"PAPA GIOVANNI XXIII - ERMELLINO","stop_desc":null,"stop_lat":"38.086088540","stop_lon":"13.361508700","zone_id":"1","stop_url":null,"location_type":null,"parent_station":null,"stop_timezone":"Europe/Rome","wheelchair_boarding":1,"platform_code":null,"direction":null,"position":null},{"stop_id":"1359","stop_code":"1359","stop_name":"PAPA SERGIO - BOSCO","stop_desc":null,"stop_lat":"38.148818330","stop_lon":"13.370841670","zone_id":"1","stop_url":null,"location_type":null,"parent_station":null,"stop_timezone":"Europe/Rome","wheelchair_boarding":1,"platform_code":null,"direction":null,"position":null},{"stop_id":"136","stop_code":"136","stop_name":"ATLANTE - PIAZZA DELLA SERENITA'","stop_desc":null,"stop_lat":"38.197880000","stop_lon":"13.310500000","zone_id":"1","stop_url":null,"location_type":null,"parent_station":null,"stop_timezone":"Europe/Rome","wheelchair_boarding":1,"platform_code":null,"direction":null,"position":null},{"stop_id":"1360","stop_code":"1360","stop_name":"PAPA SERGIO - BOSCO","stop_desc":null,"stop_lat":"38.147801670","stop_lon":"13.370596670","zone_id":"1","stop_url":null,"location_type":null,"parent_station":null,"stop_timezone":"Europe/Rome","wheelchair_boarding":1,"platform_code":null,"direction":null,"position":null},{"stop_id":"1361","stop_code":"1361","stop_name":"PAPA SERGIO - CHIMICA ARENELLA","stop_desc":null,"stop_lat":"38.157185000","stop_lon":"13.370875000","zone_id":"1","stop_url":null,"location_type":null,"parent_station":null,"stop_timezone":"Europe/Rome","wheelchair_boarding":1,"platform_code":null,"direction":null,"position":null},{"stop_id":"1362","stop_code":"1362","stop_name":"PAPA SERGIO - CHIMICA ARENELLA","stop_desc":null,"stop_lat":"38.156315000","stop_lon":"13.370698330","zone_id":"1","stop_url":null,"location_type":null,"parent_station":null,"stop_timezone":"Europe/Rome","wheelchair_boarding":1,"platform_code":null,"direction":null,"position":null},{"stop_id":"1363","stop_code":"1363","stop_name":"PAPA SERGIO - DI LEO","stop_desc":null,"stop_lat":"38.150388330","stop_lon":"13.370756670","zone_id":"1","stop_url":null,"location_type":null,"parent_station":null,"stop_timezone":"Europe/Rome","wheelchair_boarding":1,"platform_code":null,"direction":null,"position":null},{"stop_id":"1364","stop_code":"1364","stop_name":"PAPA SERGIO - DI LEO","stop_desc":null,"stop_lat":"38.149726670","stop_lon":"13.370746670","zone_id":"1","stop_url":null,"location_type":null,"parent_station":null,"stop_timezone":"Europe/Rome","wheelchair_boarding":1,"platform_code":null,"direction":null,"position":null},{"stop_id":"1365","stop_code":"1365","stop_name":"PAPA SERGIO - LAVITRANO","stop_desc":null,"stop_lat":"38.154516070","stop_lon":"13.370565180","zone_id":"1","stop_url":null,"location_type":null,"parent_station":null,"stop_timezone":"Europe/Rome","wheelchair_boarding":1,"platform_code":null,"direction":null,"position":null},{"stop_id":"1366","stop_code":"1366","stop_name":"PAPA SERGIO - LAVITRANO","stop_desc":null,"stop_lat":"38.154235000","stop_lon":"13.370536670","zone_id":"1","stop_url":null,"location_type":null,"parent_station":null,"stop_timezone":"Europe/Rome","wheelchair_boarding":1,"platform_code":null,"direction":null,"position":null},{"stop_id":"1367","stop_code":"1367","stop_name":"PAPA SERGIO - OSPEDALE ALBANESE","stop_desc":null,"stop_lat":"38.146886670","stop_lon":"13.370388330","zone_id":"1","stop_url":null,"location_type":null,"parent_station":null,"stop_timezone":"Europe/Rome","wheelchair_boarding":1,"platform_code":null,"direction":null,"position":null},{"stop_id":"1368","stop_code":"1368","stop_name":"PAPA SERGIO - OSPEDALE ALBANESE","stop_desc":null,"stop_lat":"38.146296670","stop_lon":"13.370083330","zone_id":"1","stop_url":null,"location_type":null,"parent_station":null,"stop_timezone":"Europe/Rome","wheelchair_boarding":1,"platform_code":null,"direction":null,"position":null},{"stop_id":"1369","stop_code":"1369","stop_name":"PAPA SERGIO - TONNARA","stop_desc":null,"stop_lat":"38.151746710","stop_lon":"13.370739520","zone_id":"1","stop_url":null,"location_type":null,"parent_station":null,"stop_timezone":"Europe/Rome","wheelchair_boarding":1,"platform_code":null,"direction":null,"position":null},{"stop_id":"137","stop_code":"137","stop_name":"AUGUSTA - CENTURIPE","stop_desc":null,"stop_lat":"38.131505850","stop_lon":"13.291870500","zone_id":"1","stop_url":null,"location_type":null,"parent_station":null,"stop_timezone":"Europe/Rome","wheelchair_boarding":1,"platform_code":null,"direction":null,"position":null},{"stop_id":"1370","stop_code":"1370","stop_name":"PAPA SERGIO - TONNARA","stop_desc":null,"stop_lat":"38.151451670","stop_lon":"13.370695000","zone_id":"1","stop_url":null,"location_type":null,"parent_station":null,"stop_timezone":"Europe/Rome","wheelchair_boarding":1,"platform_code":null,"direction":null,"position":null},{"stop_id":"1371","stop_code":"1371","stop_name":"PAPA SERGIO - VILLA IGIEA","stop_desc":null,"stop_lat":"38.145661670","stop_lon":"13.369988330","zone_id":"1","stop_url":null,"location_type":null,"parent_station":null,"stop_timezone":"Europe/Rome","wheelchair_boarding":1,"platform_code":null,"direction":null,"position":null},{"stop_id":"1373","stop_code":"1373","stop_name":"PAPIRETO - PIAZZA DEL NOVIZIATO","stop_desc":null,"stop_lat":"38.116793330","stop_lon":"13.351971670","zone_id":"1","stop_url":null,"location_type":null,"parent_station":null,"stop_timezone":"Europe/Rome","wheelchair_boarding":1,"platform_code":null,"direction":null,"position":null},{"stop_id":"1377","stop_code":"1377","stop_name":"PARCHEGGIO BASILE CORSIA ESTERNA","stop_desc":null,"stop_lat":"38.097753206","stop_lon":"13.345455146","zone_id":"1","stop_url":null,"location_type":null,"parent_station":"30000","stop_timezone":"","wheelchair_boarding":1,"platform_code":null,"direction":null,"position":null},{"stop_id":"1378","stop_code":"1378","stop_name":"PARCHEGGIO BASILE CORSIA INTERNA","stop_desc":null,"stop_lat":"38.097883330","stop_lon":"13.345336670","zone_id":"1","stop_url":null,"location_type":null,"parent_station":"30000","stop_timezone":"","wheelchair_boarding":1,"platform_code":null,"direction":null,"position":null},{"stop_id":"1379","stop_code":"1379","stop_name":"PARCHEGGIO DEGLI EMIRI","stop_desc":null,"stop_lat":"38.116381670","stop_lon":"13.331681670","zone_id":"1","stop_url":null,"location_type":null,"parent_station":"40000","stop_timezone":"","wheelchair_boarding":1,"platform_code":null,"direction":null,"position":null},{"stop_id":"1380","stop_code":"1380","stop_name":"PARCHEGGIO GALATEA","stop_desc":null,"stop_lat":"38.201286670","stop_lon":"13.323200000","zone_id":"1","stop_url":null,"location_type":null,"parent_station":null,"stop_timezone":"Europe/Rome","wheelchair_boarding":1,"platform_code":null,"direction":null,"position":null},{"stop_id":"1381","stop_code":"1381","stop_name":"PARCHEGGIO GALATEA","stop_desc":null,"stop_lat":"38.201040000","stop_lon":"13.322670000","zone_id":"1","stop_url":null,"location_type":null,"parent_station":null,"stop_timezone":"Europe/Rome","wheelchair_boarding":1,"platform_code":null,"direction":null,"position":null},{"stop_id":"1382","stop_code":"1382","stop_name":"PARCHEGGIO MONGIBELLO ALTO","stop_desc":null,"stop_lat":"38.207197270","stop_lon":"13.321913930","zone_id":"1","stop_url":null,"location_type":null,"parent_station":null,"stop_timezone":"Europe/Rome","wheelchair_boarding":1,"platform_code":null,"direction":null,"position":null},{"stop_id":"1383","stop_code":"1383","stop_name":"PARCHEGGIO MONGIBELLO BASSO","stop_desc":null,"stop_lat":"38.207068700","stop_lon":"13.322845990","zone_id":"1","stop_url":null,"location_type":null,"parent_station":null,"stop_timezone":"Europe/Rome","wheelchair_boarding":1,"platform_code":null,"direction":null,"position":null},{"stop_id":"1384","stop_code":"1384","stop_name":"PARISIO - FALCANDO","stop_desc":null,"stop_lat":"38.125806670","stop_lon":"13.337470000","zone_id":"1","stop_url":null,"location_type":null,"parent_station":null,"stop_timezone":"Europe/Rome","wheelchair_boarding":1,"platform_code":null,"direction":null,"position":null},